eGRID2016 Generator file sequence number,Plant state abbreviation,Plant name,DOE/EIA ORIS plant or facility code,Generator ID,Number of associated boilers,Generator status,Generator prime mover type,Generator primary fuel,Generator nameplate capacity (MW),Generator capacity factor,Generator annual net generation (MWh),Generator ozone season net generation (MWh),Generation data source,Generator year on-line,Generator planned or actual retirement year,area,utility,latitude,longitude,state,NGCC,NGCT,Coal,Oil,Wind,SolarPV,SolarCSP,Hydro,Nuclear,Other,Bus
1634,CA,1420 Coil Av #C,57310,1,0,OP,PV,SUN,1.3,0.14,1592,847,Distributed from 923 Generation And Fuel,2011,,LDWP,Los Angeles Department of Water & Power,33.794283,-118.241405,California,0,0,0,0,0,1.3,0,0,0,0,0
1635,CA,2081 Terzian Solar Project,58918,2081,0,OP,PV,SUN,1.2,0.247,2601,1384,Distributed from 923 Generation And Fuel,2014,,CISO,Pacific Gas & Electric Co,36.67,-119.415833,California,0,0,0,0,0,1.2,0,0,0,0,0
1636,CA,2097 Helton Solar Project,58920,2097,0,OP,PV,SUN,1.5,0.289,3798,2021,Distributed from 923 Generation And Fuel,2014,,CISO,Pacific Gas & Electric Co,37.352222,-120.506944,California,0,0,0,0,0,1.5,0,0,0,0,0
1637,CA,2127 Harris Solar Project,58919,2127,0,OP,PV,SUN,1.3,0.238,2712,1443,Distributed from 923 Generation And Fuel,2014,,CISO,Pacific Gas & Electric Co,39.291667,-121.669722,California,0,0,0,0,0,1.3,0,0,0,0,0
1638,CA,2555 E Olympic Bl,57871,1,0,OP,PV,SUN,1,0.203,1780,947,Distributed from 923 Generation And Fuel,2012,,LDWP,Los Angeles Department of Water & Power,34.026944,-118.224167,California,0,0,0,0,0,1,0,0,0,0,0
1639,CA,85 A,52162,WGNS,0,OP,WT,WND,14.1,0.13,16012,8811,Distributed from 923 Generation And Fuel,1985,,CISO,Southern California Edison Co,35.1011,-118.3372,California,0,0,0,0,14.1,0,0,0,0,0,0
1640,CA,85 B,52163,WTGN,0,OP,WT,WND,21.2,0.111,20601,11336,Distributed from 923 Generation And Fuel,1985,,CISO,Southern California Edison Co,35.1011,-118.3372,California,0,0,0,0,21.2,0,0,0,0,0,0
1641,CA,A G Wishon,293,1,0,OP,HY,WAT,3.2,0.306,8578.75,4482,Distributed from 923 Generation And Fuel,1910,,CISO,Pacific Gas & Electric Co,37.15105,-119.504724,California,0,0,0,0,0,0,0,3.2,0,0,0
1642,CA,A G Wishon,293,2,0,OP,HY,WAT,3.2,0.306,8578.75,4482,Distributed from 923 Generation And Fuel,1910,,CISO,Pacific Gas & Electric Co,37.15105,-119.504724,California,0,0,0,0,0,0,0,3.2,0,0,0
1643,CA,A G Wishon,293,3,0,OP,HY,WAT,3.2,0.306,8578.75,4482,Distributed from 923 Generation And Fuel,1910,,CISO,Pacific Gas & Electric Co,37.15105,-119.504724,California,0,0,0,0,0,0,0,3.2,0,0,0
1644,CA,A G Wishon,293,4,0,OP,HY,WAT,3.2,0.306,8578.75,4482,Distributed from 923 Generation And Fuel,1910,,CISO,Pacific Gas & Electric Co,37.15105,-119.504724,California,0,0,0,0,0,0,0,3.2,0,0,0
1645,CA,ABEC Bidart-Old River LLC,58699,GEN 1,0,OP,IC,OBG,1,0.622,5449.5,2320.5,Distributed from 923 Generation And Fuel,2013,,CISO,Pacific Gas & Electric Co,35.169722,-119.105556,California,0,0,0,0,0,0,0,0,0,1,0
1646,CA,ABEC Bidart-Old River LLC,58699,GEN 2,0,OP,IC,OBG,1,0.622,5449.5,2320.5,Distributed from 923 Generation And Fuel,2013,,CISO,Pacific Gas & Electric Co,35.169722,-119.105556,California,0,0,0,0,0,0,0,0,0,1,0
1647,CA,"Adelanto Solar II, LLC",59440,SAS,0,OP,PV,SUN,7,0.281,17202,9151,Distributed from 923 Generation And Fuel,2015,,CISO,Southern California Edison Co,34.557222,-117.3775,California,0,0,0,0,0,7,0,0,0,0,0
1648,CA,Adelanto Solar Project,57305,1,0,OP,PV,SUN,10,0.185,16245,8642,Distributed from 923 Generation And Fuel,2012,,LDWP,Intermountain Power Agency,34.550833,-117.435277,California,0,0,0,0,0,10,0,0,0,0,0
1649,CA,"Adelanto Solar, LLC",59441,SAS,0,OP,PV,SUN,20,0.326,57181,30420,Distributed from 923 Generation And Fuel,2015,,CISO,Southern California Edison Co,34.557222,-117.3775,California,0,0,0,0,0,20,0,0,0,0,0
1650,CA,Adera Solar,60027,ADERA,0,OP,PV,SUN,20,0.216,37763,20090,Distributed from 923 Generation And Fuel,2015,,CISO,Pacific Gas & Electric Co,37.120586,-120.32488,California,0,0,0,0,0,20,0,0,0,0,0
1651,CA,Adobe San Jose,57811,ADB00,0,OP,FC,NG,0.8,0.835,5849.333,2744,Distributed from 923 Generation And Fuel,2010,,CISO,Pacific Gas & Electric Co,37.330556,-121.893056,California,0,0.8,0,0,0,0,0,0,0,0,0
1652,CA,Adobe San Jose,57811,ADB01,0,OP,FC,NG,0.4,0.835,2924.667,1372,Distributed from 923 Generation And Fuel,2010,,CISO,Pacific Gas & Electric Co,37.330556,-121.893056,California,0,0.4,0,0,0,0,0,0,0,0,0
1653,CA,Aera San Ardo Cogen Facility,55184,UN-A,0,OP,GT,NG,3,0.901,23669.516,11104.355,Distributed from 923 Generation And Fuel,1989,,CISO,Pacific Gas & Electric Co,35.953293,-120.859952,California,0,3,0,0,0,0,0,0,0,0,0
1654,CA,Aera San Ardo Cogen Facility,55184,UN-B,0,OP,GT,NG,3.2,0.901,25247.484,11844.645,Distributed from 923 Generation And Fuel,1989,,CISO,Pacific Gas & Electric Co,35.953293,-120.859952,California,0,3.2,0,0,0,0,0,0,0,0,0
1658,CA,Aerojet I,57697,1,0,OP,PV,SUN,3,0.218,5725,3046,Distributed from 923 Generation And Fuel,2009,,CISO,Southern California Edison Co,38.613508,-121.162879,California,0,0,0,0,0,3,0,0,0,0,0
1659,CA,Aerojet II,57698,1,0,OP,PV,SUN,2.7,0.163,3861,2054,Distributed from 923 Generation And Fuel,2010,,CISO,Southern California Edison Co,38.6086,-121.1703,California,0,0,0,0,0,2.7,0,0,0,0,0
1660,CA,AES Alamitos LLC,315,1,1,OP,ST,NG,156,0.023,30927,24078,EIA-923 Generator File,1956,2019,CISO,Southern California Edison Co,33.7688,-118.1009,California,156,0,0,0,0,0,0,0,0,0,0
1661,CA,AES Alamitos LLC,315,2,1,OP,ST,NG,156,0.038,52080,25406,EIA-923 Generator File,1957,2019,CISO,Southern California Edison Co,33.7688,-118.1009,California,156,0,0,0,0,0,0,0,0,0,0
1662,CA,AES Alamitos LLC,315,3,1,OP,ST,NG,310,0.12,326884,119466,EIA-923 Generator File,1961,2020,CISO,Southern California Edison Co,33.7688,-118.1009,California,310,0,0,0,0,0,0,0,0,0,0
1663,CA,AES Alamitos LLC,315,4,1,OP,ST,NG,310,0.103,280814,161912,EIA-923 Generator File,1962,2020,CISO,Southern California Edison Co,33.7688,-118.1009,California,310,0,0,0,0,0,0,0,0,0,0
1664,CA,AES Alamitos LLC,315,5,1,OP,ST,NG,495,0.019,81630,79514,EIA-923 Generator File,1964,2019,CISO,Southern California Edison Co,33.7688,-118.1009,California,495,0,0,0,0,0,0,0,0,0,0
1665,CA,AES Alamitos LLC,315,6,1,OP,ST,NG,495,0.027,117060,117060,EIA-923 Generator File,1966,2020,CISO,Southern California Edison Co,33.7688,-118.1009,California,495,0,0,0,0,0,0,0,0,0,0
1668,CA,AES Huntington Beach LLC,335,1,1,OP,ST,NG,218,0.132,251450,191420,EIA-923 Generator File,1958,2019,CISO,Southern California Edison Co,33.6439,-117.9792,California,218,0,0,0,0,0,0,0,0,0,0
1669,CA,AES Huntington Beach LLC,335,2,1,OP,ST,NG,218,0.123,234741,178918,EIA-923 Generator File,1958,2020,CISO,Southern California Edison Co,33.6439,-117.9792,California,218,0,0,0,0,0,0,0,0,0,0
1673,CA,AES Redondo Beach LLC,356,5,1,OP,ST,NG,163.2,0.015,21465,20292,EIA-923 Generator File,1954,2020,CISO,Southern California Edison Co,33.8504,-118.395,California,163.2,0,0,0,0,0,0,0,0,0,0
1674,CA,AES Redondo Beach LLC,356,6,1,OP,ST,NG,163.2,0.033,47882,36785,EIA-923 Generator File,1957,2020,CISO,Southern California Edison Co,33.8504,-118.395,California,163.2,0,0,0,0,0,0,0,0,0,0
1675,CA,AES Redondo Beach LLC,356,7,1,OP,ST,NG,495,0.041,176864,176864,EIA-923 Generator File,1967,2019,CISO,Southern California Edison Co,33.8504,-118.395,California,495,0,0,0,0,0,0,0,0,0,0
1676,CA,AES Redondo Beach LLC,356,8,1,OP,ST,NG,495,0.017,74344,74344,EIA-923 Generator File,1967,2020,CISO,Southern California Edison Co,33.8504,-118.395,California,495,0,0,0,0,0,0,0,0,0,0
1677,CA,Agnews Power Plant,50748,GEN1,0,OP,CT,NG,24.4,0.06,12821,6014.955,EIA-923 Generator File,1990,,CISO,Pacific Gas & Electric Co,37.4058,-121.9272,California,24.4,0,0,0,0,0,0,0,0,0,0
1678,CA,Agnews Power Plant,50748,GEN2,0,OP,CA,NG,7.6,0.057,3819,1791.678,EIA-923 Generator File,1990,,CISO,Pacific Gas & Electric Co,37.4058,-121.9272,California,7.6,0,0,0,0,0,0,0,0,0,0
1679,CA,Agua Mansa Power Plant,55951,AMP1,0,OP,GT,NG,60.5,0.012,6466,3034,Distributed from 923 Generation And Fuel,2003,,CISO,City of Colton - (CA),34.0414,-117.3603,California,0,60.5,0,0,0,0,0,0,0,0,0
1680,CA,Aidlin Geothermal Power Plant,52158,GEN1,0,OP,ST,GEO,12.5,0.572,62643,26767.5,Distributed from 923 Generation And Fuel,1989,,CISO,Pacific Gas & Electric Co,38.8339,-122.881,California,0,0,0,0,0,0,0,0,0,12.5,0
1681,CA,Aidlin Geothermal Power Plant,52158,GEN2,0,OP,ST,GEO,12.5,0.572,62643,26767.5,Distributed from 923 Generation And Fuel,1989,,CISO,Pacific Gas & Electric Co,38.8339,-122.881,California,0,0,0,0,0,0,0,0,0,12.5,0
1684,CA,Alamo,905,1,0,OP,HY,WAT,19.6,0.39,67000,35003,Distributed from 923 Generation And Fuel,1986,,CISO,Southern California Edison Co,34.8158,-118.6867,California,0,0,0,0,0,0,0,19.6,0,0,0
1685,CA,Alamo Solar,59469,ALAMO,0,OP,PV,SUN,20,0.3,52591,27978,Distributed from 923 Generation And Fuel,2015,,CISO,Southern California Edison Co,34.682222,-117.3475,California,0,0,0,0,0,20,0,0,0,0,0
1686,CA,Algonquin Power Sanger LLC,57564,CTG,0,OP,CT,NG,49,0.226,96991,43004,EIA-923 Generator File,2007,,CISO,Pacific Gas & Electric Co,36.6842,-119.5522,California,49,0,0,0,0,0,0,0,0,0,0
1687,CA,Algonquin Power Sanger LLC,57564,STG2,1,OP,CA,NG,12.5,0.212,23267,10586,EIA-923 Generator File,2012,,CISO,Pacific Gas & Electric Co,36.6842,-119.5522,California,12.5,0,0,0,0,0,0,0,0,0,0
1690,CA,Algonquin SKIC20 Solar LLC,59412,SKI20,0,OP,PV,SUN,20,0.262,45907,24422,Distributed from 923 Generation And Fuel,2015,,CISO,Pacific Gas & Electric Co,35.126111,-119.243333,California,0,0,0,0,0,20,0,0,0,0,0
1698,CA,Alpaugh 50,58003,SPS50,0,OP,PV,SUN,50,0.304,133296,74577,Distributed from 923 Generation And Fuel,2012,,CISO,Pacific Gas & Electric Co,35.898333,-119.435278,California,0,0,0,0,0,50,0,0,0,0,0
1699,CA,Alpaugh North,58002,SPS,0,OP,PV,SUN,20,0.299,52471,27914,Distributed from 923 Generation And Fuel,2012,,CISO,Pacific Gas & Electric Co,35.9025,-119.442778,California,0,0,0,0,0,20,0,0,0,0,0
1700,CA,Alpine Solar,57295,1,0,OP,PV,SUN,66,0.286,165117,80089,Distributed from 923 Generation And Fuel,2013,,CISO,Southern California Edison Co,34.7892,-118.5047,California,0,0,0,0,0,66,0,0,0,0,0
1703,CA,Alta Powerhouse,214,1,0,OP,HY,WAT,1,0.357,3123,1632,Distributed from 923 Generation And Fuel,1902,,CISO,Pacific Gas & Electric Co,39.215979,-120.80355,California,0,0,0,0,0,0,0,1,0,0,0
1705,CA,Alta Wind Energy Center I,57282,AW01,0,OP,WT,WND,150,0.315,413363,206526,Distributed from 923 Generation And Fuel,2011,,CISO,Southern California Edison Co,35.033725,-118.353422,California,0,0,0,0,150,0,0,0,0,0,0
1706,CA,Alta Wind Energy Center II,57291,AW02,0,OP,WT,WND,150,0.274,360216,188545,Distributed from 923 Generation And Fuel,2011,,CISO,Southern California Edison Co,35.023889,-118.295278,California,0,0,0,0,150,0,0,0,0,0,0
1707,CA,Alta Wind Energy Center III,57292,AW03,0,OP,WT,WND,150,0.29,380465,196424,Distributed from 923 Generation And Fuel,2011,,CISO,Southern California Edison Co,35.023889,-118.295278,California,0,0,0,0,150,0,0,0,0,0,0
1708,CA,Alta Wind Energy Center IV,57293,AW04,0,OP,WT,WND,102,0.205,183393,93422,Distributed from 923 Generation And Fuel,2011,,CISO,Southern California Edison Co,35.008611,-118.242222,California,0,0,0,0,102,0,0,0,0,0,0
1709,CA,Alta Wind Energy Center V,57294,AW05,0,OP,WT,WND,168,0.199,293378,146613,Distributed from 923 Generation And Fuel,2011,,CISO,Southern California Edison Co,35.008611,-118.242222,California,0,0,0,0,168,0,0,0,0,0,0
1710,CA,Alta Wind VIII,57835,AW08,0,OP,WT,WND,150,0.224,294789,153247,Distributed from 923 Generation And Fuel,2012,,CISO,Southern California Edison Co,35.026683,-118.234811,California,0,0,0,0,150,0,0,0,0,0,0
1711,CA,Alta Wind X,58394,AW10,0,OP,WT,WND,138,0.302,364926,190004,Distributed from 923 Generation And Fuel,2014,,CISO,Southern California Edison Co,35.06,-118.2,California,0,0,0,0,138,0,0,0,0,0,0
1712,CA,Alta Wind XI,58395,AW11,0,OP,WT,WND,90,0.351,276368,120547,Distributed from 923 Generation And Fuel,2014,,CISO,Southern California Edison Co,35.065,-118.39,California,0,0,0,0,90,0,0,0,0,0,0
1713,CA,AltaGas Pomona Energy Inc.,50300,BESS1,0,OP,BA,MWH,20,0,0,0,Distributed from 923 Generation And Fuel,2016,,CISO,Southern California Edison Co,34.059444,-117.774167,California,0,0,0,0,0,0,0,0,0,20,0
1714,CA,AltaGas Pomona Energy Inc.,50300,GEN1,0,OP,GT,NG,46,0.008,3190,1497,Distributed from 923 Generation And Fuel,1985,,CISO,Southern California Edison Co,34.059444,-117.774167,California,0,46,0,0,0,0,0,0,0,0,0
1715,CA,AltaGas Ripon Energy Inc.,50299,GEN1,0,OP,GT,NG,49.5,0.025,10941,5133,Distributed from 923 Generation And Fuel,1988,,CISO,Pacific Gas & Electric Co,37.732533,-121.116006,California,0,49.5,0,0,0,0,0,0,0,0,0
1716,CA,Altamont Gas Recovery,50571,GEN1,0,OP,GT,LFG,3,0.841,22112.5,9415.5,Distributed from 923 Generation And Fuel,1969,,CISO,Pacific Gas & Electric Co,37.749308,-121.649866,California,0,0,0,0,0,0,0,0,0,3,0
1717,CA,Altamont Gas Recovery,50571,GEN2,0,OP,GT,LFG,3,0.841,22112.5,9415.5,Distributed from 923 Generation And Fuel,1989,,CISO,Pacific Gas & Electric Co,37.749308,-121.649866,California,0,0,0,0,0,0,0,0,0,3,0
1718,CA,Altamont Gas Recovery,50571,GEN3,0,OP,IC,LFG,1.3,0.056,633.5,269.5,Distributed from 923 Generation And Fuel,2002,,CISO,Pacific Gas & Electric Co,37.749308,-121.649866,California,0,0,0,0,0,0,0,0,0,1.3,0
1719,CA,Altamont Gas Recovery,50571,GEN4,0,OP,IC,LFG,1.3,0.056,633.5,269.5,Distributed from 923 Generation And Fuel,2002,,CISO,Pacific Gas & Electric Co,37.749308,-121.649866,California,0,0,0,0,0,0,0,0,0,1.3,0
1721,CA,Altech III,50485,GEN1,0,OP,WT,WND,21.7,0.141,26763.622,15121.701,Distributed from 923 Generation And Fuel,1985,,CISO,Southern California Edison Co,33.915023,-116.555064,California,0,0,0,0,21.7,0,0,0,0,0,0
1722,CA,Altech III,50485,GEN2,0,OP,WT,WND,3.4,0.141,4193.378,2369.299,Distributed from 923 Generation And Fuel,1984,,CISO,Southern California Edison Co,33.915023,-116.555064,California,0,0,0,0,3.4,0,0,0,0,0,0
1725,CA,Amazon San Bernardino,59800,AMZ00,0,OP,FC,NG,1.1,0.822,7923,3717,Distributed from 923 Generation And Fuel,2014,,CISO,Southern California Edison Co,34.088408,-117.245839,California,0,1.1,0,0,0,0,0,0,0,0,0
1726,CA,Amedee Geothermal Venture I,50964,IND,0,OP,ST,GEO,1.5,0,0,0,Distributed from 923 Generation And Fuel,1988,,CISO,Pacific Gas & Electric Co,40.300833,-120.105,California,0,0,0,0,0,0,0,0,0,1.5,0
1727,CA,Amedee Geothermal Venture I,50964,SYN,0,OP,ST,GEO,1.5,0,0,0,Distributed from 923 Generation And Fuel,1988,,CISO,Pacific Gas & Electric Co,40.300833,-120.105,California,0,0,0,0,0,0,0,0,0,1.5,0
1728,CA,Ameresco Butte County,57771,1,0,OP,IC,LFG,2.3,0.787,15857,6752,Distributed from 923 Generation And Fuel,2013,,CISO,Pacific Gas & Electric Co,39.674,-121.73,California,0,0,0,0,0,0,0,0,0,2.3,0
1729,CA,Ameresco Chiquita Canyon,56898,1,0,OP,GT,LFG,4.6,0.596,24023,10229,Distributed from 923 Generation And Fuel,2010,,CISO,Southern California Edison Co,34.431664,-118.642855,California,0,0,0,0,0,0,0,0,0,4.6,0
1730,CA,Ameresco Chiquita Canyon,56898,2,0,OP,GT,LFG,4.6,0.596,24023,10229,Distributed from 923 Generation And Fuel,2010,,CISO,Southern California Edison Co,34.431664,-118.642855,California,0,0,0,0,0,0,0,0,0,4.6,0
1731,CA,Ameresco Forward,58437,ENG1,0,OP,IC,LFG,2.2,0.847,16324.5,6951,Distributed from 923 Generation And Fuel,2014,,CISO,Pacific Gas & Electric Co,37.883406,-121.185104,California,0,0,0,0,0,0,0,0,0,2.2,0
1732,CA,Ameresco Forward,58437,ENG2,0,OP,IC,LFG,2.2,0.847,16324.5,6951,Distributed from 923 Generation And Fuel,2014,,CISO,Pacific Gas & Electric Co,37.883406,-121.185104,California,0,0,0,0,0,0,0,0,0,2.2,0
1733,CA,Ameresco Johnson Canyon,58397,ENG1,0,OP,IC,LFG,1.4,0.853,10460,4454,Distributed from 923 Generation And Fuel,2013,,CISO,Pacific Gas & Electric Co,36.534167,-121.408611,California,0,0,0,0,0,0,0,0,0,1.4,0
1734,CA,Ameresco Keller Canyon,56897,1,0,OP,IC,LFG,1.9,0.91,15147.5,6450,Distributed from 923 Generation And Fuel,2009,,CISO,Pacific Gas & Electric Co,38.003928,-121.934491,California,0,0,0,0,0,0,0,0,0,1.9,0
1735,CA,Ameresco Keller Canyon,56897,2,0,OP,IC,LFG,1.9,0.91,15147.5,6450,Distributed from 923 Generation And Fuel,2009,,CISO,Pacific Gas & Electric Co,38.003928,-121.934491,California,0,0,0,0,0,0,0,0,0,1.9,0
1736,CA,Ameresco Ox Mountain,56895,1,0,OP,IC,LFG,1.9,0.855,14231.167,6059.667,Distributed from 923 Generation And Fuel,2008,,CISO,Pacific Gas & Electric Co,37.5,-122.4,California,0,0,0,0,0,0,0,0,0,1.9,0
1737,CA,Ameresco Ox Mountain,56895,2,0,OP,IC,LFG,1.9,0.855,14231.167,6059.667,Distributed from 923 Generation And Fuel,2008,,CISO,Pacific Gas & Electric Co,37.5,-122.4,California,0,0,0,0,0,0,0,0,0,1.9,0
1738,CA,Ameresco Ox Mountain,56895,3,0,OP,IC,LFG,1.9,0.855,14231.167,6059.667,Distributed from 923 Generation And Fuel,2008,,CISO,Pacific Gas & Electric Co,37.5,-122.4,California,0,0,0,0,0,0,0,0,0,1.9,0
1739,CA,Ameresco Ox Mountain,56895,4,0,OP,IC,LFG,1.9,0.855,14231.167,6059.667,Distributed from 923 Generation And Fuel,2008,,CISO,Pacific Gas & Electric Co,37.5,-122.4,California,0,0,0,0,0,0,0,0,0,1.9,0
1740,CA,Ameresco Ox Mountain,56895,5,0,OP,IC,LFG,1.9,0.855,14231.167,6059.667,Distributed from 923 Generation And Fuel,2008,,CISO,Pacific Gas & Electric Co,37.5,-122.4,California,0,0,0,0,0,0,0,0,0,1.9,0
1741,CA,Ameresco Ox Mountain,56895,6,0,OP,IC,LFG,1.9,0.855,14231.167,6059.667,Distributed from 923 Generation And Fuel,2008,,CISO,Pacific Gas & Electric Co,37.5,-122.4,California,0,0,0,0,0,0,0,0,0,1.9,0
1742,CA,Ameresco San Joaquin,58436,ENG1,0,OP,IC,LFG,2.2,0.695,13393,5703,Distributed from 923 Generation And Fuel,2014,,CISO,Pacific Gas & Electric Co,38.029722,-120.929722,California,0,0,0,0,0,0,0,0,0,2.2,0
1743,CA,Ameresco San Joaquin,58436,ENG2,0,OP,IC,LFG,2.2,0.695,13393,5703,Distributed from 923 Generation And Fuel,2014,,CISO,Pacific Gas & Electric Co,38.029722,-120.929722,California,0,0,0,0,0,0,0,0,0,2.2,0
1744,CA,Ameresco Santa Cruz Energy,56428,Unit1,0,OP,IC,LFG,1,0.747,6542,2785.667,Distributed from 923 Generation And Fuel,2006,,CISO,Pacific Gas & Electric Co,36.9178,-121.8156,California,0,0,0,0,0,0,0,0,0,1,0
1745,CA,Ameresco Santa Cruz Energy,56428,Unit2,0,OP,IC,LFG,1,0.747,6542,2785.667,Distributed from 923 Generation And Fuel,2006,,CISO,Pacific Gas & Electric Co,36.9178,-121.8156,California,0,0,0,0,0,0,0,0,0,1,0
1746,CA,Ameresco Santa Cruz Energy,56428,Unit3,0,OP,IC,LFG,1,0.747,6542,2785.667,Distributed from 923 Generation And Fuel,2006,,CISO,Pacific Gas & Electric Co,36.9178,-121.8156,California,0,0,0,0,0,0,0,0,0,1,0
1747,CA,Ameresco Vasco Road,58435,ENG1,0,OP,IC,LFG,2.2,0.863,16625.5,7079,Distributed from 923 Generation And Fuel,2014,,CISO,Pacific Gas & Electric Co,37.754444,-121.728889,California,0,0,0,0,0,0,0,0,0,2.2,0
1748,CA,Ameresco Vasco Road,58435,ENG2,0,OP,IC,LFG,2.2,0.863,16625.5,7079,Distributed from 923 Generation And Fuel,2014,,CISO,Pacific Gas & Electric Co,37.754444,-121.728889,California,0,0,0,0,0,0,0,0,0,2.2,0
1750,CA,Ampersand Chowchilla Biomass LLC,56706,AMPC,1,OP,ST,WDS,12.5,0.629,68912,28466,EIA-923 Generator File,2008,,CISO,Pacific Gas & Electric Co,37.106668,-120.248504,California,0,0,0,0,0,0,0,0,0,12.5,0
1751,CA,Anaheim GT,7693,1,0,OP,GT,NG,49.2,0.286,123093,57749,Distributed from 923 Generation And Fuel,1991,,CISO,City of Anaheim - (CA),33.853542,-117.856286,California,0,49.2,0,0,0,0,0,0,0,0,0
1752,CA,Anaheim Solar Energy Plant,59416,PV1,0,OP,PV,SUN,2.1,0.184,3389,1803,Distributed from 923 Generation And Fuel,2014,,CISO,City of Anaheim - (CA),33.8025,-117.919722,California,0,0,0,0,0,2.1,0,0,0,0,0
1753,CA,Angels,215,1,0,OP,HY,WAT,1.4,0.476,5833,3047,Distributed from 923 Generation And Fuel,1940,,CISO,Pacific Gas & Electric Co,38.071944,-120.539444,California,0,0,0,0,0,0,0,1.4,0,0,0
1754,CA,Anheuser-Busch #2,59331,ANB2,0,OP,WT,WND,1.6,0.281,3936,2166,Distributed from 923 Generation And Fuel,2014,,CISO,Pacific Gas & Electric Co,38.233611,-122.0925,California,0,0,0,0,1.6,0,0,0,0,0,0
1755,CA,Antelope Big Sky Ranch,60279,ABSR,0,OP,PV,SUN,20,0.097,17070,8612,Distributed from 923 Generation And Fuel,2016,,CISO,Southern California Edison Co,34.694839,-118.28769,California,0,0,0,0,0,20,0,0,0,0,0
1756,CA,Antelope DSR 1,60186,DSR1,0,OP,PV,SUN,50,0.015,6690,0,Distributed from 923 Generation And Fuel,2016,,CISO,Southern California Edison Co,34.655556,-118.280722,California,0,0,0,0,0,50,0,0,0,0,0
1757,CA,Antelope DSR 2,60187,DSR2,0,OP,PV,SUN,5,0.032,1388,0,Distributed from 923 Generation And Fuel,2016,,CISO,Southern California Edison Co,34.686944,-118.311722,California,0,0,0,0,0,5,0,0,0,0,0
1760,CA,"AP North Lake I, LP",59610,APNLI,0,OP,PV,SUN,20,,,,,2015,,CISO,Southern California Edison Co,33.74,-117.010556,California,0,0,0,0,0,20,0,0,0,0,0
1764,CA,Argus Cogen Plant,10684,TG8,2,OP,ST,RC,27.5,0.675,162502,66966,EIA-923 Generator File,1978,,CISO,Southern California Edison Co,35.765,-117.3833,California,0,0,0,0,0,0,0,0,0,27.5,0
1765,CA,Argus Cogen Plant,10684,TG9,2,OP,ST,RC,27.5,0.678,163400,65073,EIA-923 Generator File,1978,,CISO,Southern California Edison Co,35.765,-117.3833,California,0,0,0,0,0,0,0,0,0,27.5,0
1766,CA,Arrache 4006,58445,1,0,OP,PV,SUN,1,0.162,1417.5,754,Distributed from 923 Generation And Fuel,2013,,CISO,Southern California Edison Co,34.655,-118.051111,California,0,0,0,0,0,1,0,0,0,0,0
1767,CA,Arrache 4006,58445,2,0,OP,PV,SUN,1,0.162,1417.5,754,Distributed from 923 Generation And Fuel,2013,,CISO,Southern California Edison Co,34.655,-118.051111,California,0,0,0,0,0,1,0,0,0,0,0
1768,CA,Arrache 4013,58446,1,0,OP,PV,SUN,1.5,0.336,4410,2346,Distributed from 923 Generation And Fuel,2013,,CISO,Southern California Edison Co,34.650556,-118.051944,California,0,0,0,0,0,1.5,0,0,0,0,0
1769,CA,Arrache 8083,58447,1,0,OP,PV,SUN,1.5,0.102,1337.625,711.75,Distributed from 923 Generation And Fuel,2013,,CISO,Southern California Edison Co,34.647778,-118.061111,California,0,0,0,0,0,1.5,0,0,0,0,0
1770,CA,Arrache 8083,58447,2,0,OP,PV,SUN,1.5,0.102,1337.625,711.75,Distributed from 923 Generation And Fuel,2013,,CISO,Southern California Edison Co,34.647778,-118.061111,California,0,0,0,0,0,1.5,0,0,0,0,0
1771,CA,Arrache 8083,58447,3,0,OP,PV,SUN,1,0.102,891.75,474.5,Distributed from 923 Generation And Fuel,2013,,CISO,Southern California Edison Co,34.647778,-118.061111,California,0,0,0,0,0,1,0,0,0,0,0
1773,CA,ASTI,58889,ASTI,0,OP,PV,SUN,1,0.176,1541,820,Distributed from 923 Generation And Fuel,2009,,CISO,Pacific Gas & Electric Co,38.761389,-122.975278,California,0,0,0,0,0,1,0,0,0,0,0
1774,CA,AT&T Anaheim,61154,AT058,0,OP,FC,NG,1.3,0.24,2728,757,Distributed from 923 Generation And Fuel,2016,,CISO,City of Anaheim - (CA),33.836439,-117.916893,California,0,1.3,0,0,0,0,0,0,0,0,0
1775,CA,AT&T Holger,61153,AT057,0,OP,FC,NG,1.3,0.371,4229,2617,Distributed from 923 Generation And Fuel,2016,,CISO,Pacific Gas & Electric Co,37.417638,-121.94453,California,0,1.3,0,0,0,0,0,0,0,0,0
1776,CA,Atwell Island,58366,1,0,OP,PV,SUN,20.2,0.233,41255,21948,Distributed from 923 Generation And Fuel,2013,,CISO,Pacific Gas & Electric Co,35.895,-119.510833,California,0,0,0,0,0,20.2,0,0,0,0,0
1777,CA,Atwell Island West Solar,59414,AWCA,0,OP,PV,SUN,20,0.325,56979,30313,Distributed from 923 Generation And Fuel,2015,,CISO,Pacific Gas & Electric Co,35.815,-119.459722,California,0,0,0,0,0,20,0,0,0,0,0
1778,CA,AV Solar Ranch One,57378,AVSR,0,OP,PV,SUN,253,0.277,614294,306629,Distributed from 923 Generation And Fuel,2014,,CISO,Southern California Edison Co,34.780278,-118.42444,California,0,0,0,0,0,253,0,0,0,0,0
1779,CA,Avenal Park,57359,1,0,OP,PV,SUN,6,0.243,12761,6789,Distributed from 923 Generation And Fuel,2011,,CISO,Pacific Gas & Electric Co,35.989722,-120.11,California,0,0,0,0,0,6,0,0,0,0,0
1780,CA,AVS Lancaster 1,60085,PV1,0,OP,PV,SUN,3.7,0,0,0,Distributed from 923 Generation And Fuel,2016,,CISO,Southern California Edison Co,34.748894,-117.973571,California,0,0,0,0,0,3.7,0,0,0,0,0
1781,CA,Azusa,6449,1,0,OP,HY,WAT,3,0,0,0,Distributed from 923 Generation And Fuel,1949,,CISO,Southern California Edison Co,34.1548,-117.9093,California,0,0,0,0,0,0,0,3,0,0,0
1782,CA,B Braun Medical,50200,GEN1,0,OP,GT,NG,2.8,0.684,16777.049,7870.754,Distributed from 923 Generation And Fuel,1982,,CISO,Southern California Edison Co,33.688721,-117.834793,California,0,2.8,0,0,0,0,0,0,0,0,0
1783,CA,B Braun Medical,50200,GEN2,0,OP,GT,NG,3.3,0.684,19772.951,9276.246,Distributed from 923 Generation And Fuel,1995,,CISO,Southern California Edison Co,33.688721,-117.834793,California,0,3.3,0,0,0,0,0,0,0,0,0
1784,CA,Badger Creek Limited,10650,GEN1,0,OP,GT,NG,46,0.008,3339,1566,Distributed from 923 Generation And Fuel,1991,,CISO,Pacific Gas & Electric Co,35.483736,-119.029856,California,0,46,0,0,0,0,0,0,0,0,0
1785,CA,Baker Creek Hydroelectric,59428,GENE1,0,OP,HY,WAT,1.4,0.311,3812.667,1991.733,Distributed from 923 Generation And Fuel,2014,,CISO,Pacific Gas & Electric Co,40.526389,-123.725556,California,0,0,0,0,0,0,0,1.4,0,0,0
1786,CA,Baker Creek Hydroelectric,59428,GENE2,0,OP,HY,WAT,0.1,0.311,272.333,142.267,Distributed from 923 Generation And Fuel,2014,,CISO,Pacific Gas & Electric Co,40.526389,-123.725556,California,0,0,0,0,0,0,0,0.1,0,0,0
1787,CA,Bakersfield 111,59948,BF111,0,OP,PV,SUN,1.4,0.271,3323,1768,Distributed from 923 Generation And Fuel,2015,,PACW,Pacific Gas & Electric Co,35.317551,-118.989894,California,0,0,0,0,0,1.4,0,0,0,0,0
1788,CA,Bakersfield College Solar 01,57655,BC01,0,OP,PV,SUN,1.1,0.212,2046,1088,Distributed from 923 Generation And Fuel,2010,,CISO,Pacific Gas & Electric Co,35.411817,-118.96864,California,0,0,0,0,0,1.1,0,0,0,0,0
1791,CA,Balch 1,217,1,0,OP,HY,WAT,31,0.488,132644,69298,Distributed from 923 Generation And Fuel,1927,,CISO,Pacific Gas & Electric Co,36.909137,-119.087712,California,0,0,0,0,0,0,0,31,0,0,0
1792,CA,Balch 2,218,2,0,OP,HY,WAT,48.6,0.39,165958,102035.5,Distributed from 923 Generation And Fuel,1958,,CISO,Pacific Gas & Electric Co,36.908907,-119.087556,California,0,0,0,0,0,0,0,48.6,0,0,0
1793,CA,Balch 2,218,3,0,OP,HY,WAT,48.6,0.39,165958,102035.5,Distributed from 923 Generation And Fuel,1958,,CISO,Pacific Gas & Electric Co,36.908907,-119.087556,California,0,0,0,0,0,0,0,48.6,0,0,0
1794,CA,Barre Peaker,56474,1,0,OP,GT,NG,49.8,0.066,28750,13488,Distributed from 923 Generation And Fuel,2007,,CISO,Southern California Edison Co,33.8073,-117.9832,California,0,49.8,0,0,0,0,0,0,0,0,0
1803,CA,Bear Creek,50156,GEN1,0,OP,HY,WAT,3.2,0.217,6078,3175,Distributed from 923 Generation And Fuel,1990,,CISO,Pacific Gas & Electric Co,40.534454,-121.959109,California,0,0,0,0,0,0,0,3.2,0,0,0
1804,CA,Bear Creek Solar,58508,PV3,0,OP,PV,SUN,1.5,0.283,3722,1980,Distributed from 923 Generation And Fuel,2014,,CISO,Pacific Gas & Electric Co,38.136389,-121.148889,California,0,0,0,0,0,1.5,0,0,0,0,0
1805,CA,Bear Mountain Limited,10649,GEN1,0,OP,GT,NG,46,0.02,8073,3787,Distributed from 923 Generation And Fuel,1995,,CISO,Pacific Gas & Electric Co,35.419181,-118.926643,California,0,46,0,0,0,0,0,0,0,0,0
1806,CA,Bear Valley,457,HC1,0,OP,HY,WAT,0.7,0.066,403,210.5,Distributed from 923 Generation And Fuel,1986,,CISO,San Diego Gas & Electric Co,33.166246,-117.016566,California,0,0,0,0,0,0,0,0.7,0,0,0
1807,CA,Bear Valley,457,HC2,0,OP,HY,WAT,0.7,0.066,403,210.5,Distributed from 923 Generation And Fuel,1986,,CISO,San Diego Gas & Electric Co,33.166246,-117.016566,California,0,0,0,0,0,0,0,0.7,0,0,0
1808,CA,Bear Valley Power Plant,56346,ICE1,0,OP,IC,NG,1.2,,-5.143,-2.413,Data from EIA-923 Generator File overwritten with distributed data from EIA-923 Generation and Fuel,2005,,CISO,Bear Valley Electric Service,34.2506,-116.9025,California,0,1.2,0,0,0,0,0,0,0,0,0
1809,CA,Bear Valley Power Plant,56346,ICE2,0,OP,IC,NG,1.2,,-5.143,-2.413,Data from EIA-923 Generator File overwritten with distributed data from EIA-923 Generation and Fuel,2005,,CISO,Bear Valley Electric Service,34.2506,-116.9025,California,0,1.2,0,0,0,0,0,0,0,0,0
1810,CA,Bear Valley Power Plant,56346,ICE3,0,OP,IC,NG,1.2,,-5.143,-2.413,Data from EIA-923 Generator File overwritten with distributed data from EIA-923 Generation and Fuel,2005,,CISO,Bear Valley Electric Service,34.2506,-116.9025,California,0,1.2,0,0,0,0,0,0,0,0,0
1811,CA,Bear Valley Power Plant,56346,ICE4,0,OP,IC,NG,1.2,,-5.143,-2.413,Data from EIA-923 Generator File overwritten with distributed data from EIA-923 Generation and Fuel,2005,,CISO,Bear Valley Electric Service,34.2506,-116.9025,California,0,1.2,0,0,0,0,0,0,0,0,0
1812,CA,Bear Valley Power Plant,56346,ICE5,0,OP,IC,NG,1.2,,-5.143,-2.413,Data from EIA-923 Generator File overwritten with distributed data from EIA-923 Generation and Fuel,2005,,CISO,Bear Valley Electric Service,34.2506,-116.9025,California,0,1.2,0,0,0,0,0,0,0,0,0
1813,CA,Bear Valley Power Plant,56346,ICE6,0,OP,IC,NG,1.2,,-5.143,-2.413,Data from EIA-923 Generator File overwritten with distributed data from EIA-923 Generation and Fuel,2005,,CISO,Bear Valley Electric Service,34.2506,-116.9025,California,0,1.2,0,0,0,0,0,0,0,0,0
1814,CA,Bear Valley Power Plant,56346,ICE7,0,OP,IC,NG,1.2,,-5.143,-2.413,Data from EIA-923 Generator File overwritten with distributed data from EIA-923 Generation and Fuel,2005,,CISO,Bear Valley Electric Service,34.2506,-116.9025,California,0,1.2,0,0,0,0,0,0,0,0,0
1815,CA,Beardsley,414,1,0,OP,HY,WAT,10,0.781,68443,35757,Distributed from 923 Generation And Fuel,1957,,CISO,Pacific Gas & Electric Co,38.202569,-120.076983,California,0,0,0,0,0,0,0,10,0,0,0
1816,CA,Belden,219,1,0,OP,HY,WAT,117.9,0.176,181578,145227,Distributed from 923 Generation And Fuel,1969,,CISO,Pacific Gas & Electric Co,40.007445,-121.249438,California,0,0,0,0,0,0,0,117.9,0,0,0
1817,CA,Beringer,58890,BERI,0,OP,PV,SUN,1.2,0.155,1629,867,Distributed from 923 Generation And Fuel,2009,,CISO,Pacific Gas & Electric Co,38.510833,-122.479722,California,0,0,0,0,0,1.2,0,0,0,0,0
1818,CA,Berry Cogen,50170,GEN1,0,OP,GT,NG,38.7,0.915,310119,145492,Distributed from 923 Generation And Fuel,1986,,CISO,Pacific Gas & Electric Co,35.093046,-119.443617,California,0,38.7,0,0,0,0,0,0,0,0,0
1819,CA,Berry Cogen Tanne Hills 18,50622,GEN1,0,OP,GT,NG,8.8,0.877,67573,31702,Distributed from 923 Generation And Fuel,1986,,CISO,Pacific Gas & Electric Co,35.089829,-119.440881,California,0,8.8,0,0,0,0,0,0,0,0,0
1820,CA,Berry Cogen Tanne Hills 18,50622,GEN2,0,OP,GT,NG,8.8,0.877,67573,31702,Distributed from 923 Generation And Fuel,1986,,CISO,Pacific Gas & Electric Co,35.089829,-119.440881,California,0,8.8,0,0,0,0,0,0,0,0,0
1821,CA,Berry Placerita Cogen,52096,GEN1,0,OP,GT,NG,21.4,0.811,152029,71324,Distributed from 923 Generation And Fuel,1990,,CISO,Southern California Edison Co,34.38407,-118.494882,California,0,21.4,0,0,0,0,0,0,0,0,0
1822,CA,Berry Placerita Cogen,52096,GEN2,0,OP,GT,NG,21.4,0.811,152029,71324,Distributed from 923 Generation And Fuel,1990,,CISO,Southern California Edison Co,34.38407,-118.494882,California,0,21.4,0,0,0,0,0,0,0,0,0
1823,CA,Bidwell Ditch Project,10880,GEN1,0,OP,HY,WAT,1.8,0.641,10103,5278,Distributed from 923 Generation And Fuel,1987,,CISO,Pacific Gas & Electric Co,40.8014,-121.4481,California,0,0,0,0,0,0,0,1.8,0,0,0
1824,CA,Big Creek 1,317,1,0,OP,HY,WAT,19.8,0.364,63203.213,42393.95,Distributed from 923 Generation And Fuel,1913,,CISO,Southern California Edison Co,37.2042,-119.2396,California,0,0,0,0,0,0,0,19.8,0,0,0
1825,CA,Big Creek 1,317,2,0,OP,HY,WAT,15.8,0.364,50434.887,33829.516,Distributed from 923 Generation And Fuel,1913,,CISO,Southern California Edison Co,37.2042,-119.2396,California,0,0,0,0,0,0,0,15.8,0,0,0
1826,CA,Big Creek 1,317,3,0,OP,HY,WAT,21.6,0.364,68948.959,46247.946,Distributed from 923 Generation And Fuel,1923,,CISO,Southern California Edison Co,37.2042,-119.2396,California,0,0,0,0,0,0,0,21.6,0,0,0
1827,CA,Big Creek 1,317,4,0,OP,HY,WAT,31.2,0.364,99592.941,66802.588,Distributed from 923 Generation And Fuel,1925,,CISO,Southern California Edison Co,37.2042,-119.2396,California,0,0,0,0,0,0,0,31.2,0,0,0
1828,CA,Big Creek 2,318,3,0,OP,HY,WAT,15.8,0.57,78914.357,41228.036,Distributed from 923 Generation And Fuel,1913,,CISO,Southern California Edison Co,37.2,-119.3069,California,0,0,0,0,0,0,0,15.8,0,0,0
1829,CA,Big Creek 2,318,4,0,OP,HY,WAT,15.8,0.57,78914.357,41228.036,Distributed from 923 Generation And Fuel,1914,,CISO,Southern California Edison Co,37.2,-119.3069,California,0,0,0,0,0,0,0,15.8,0,0,0
1830,CA,Big Creek 2,318,5,0,OP,HY,WAT,17.5,0.57,87405.143,45663.964,Distributed from 923 Generation And Fuel,1921,,CISO,Southern California Edison Co,37.2,-119.3069,California,0,0,0,0,0,0,0,17.5,0,0,0
1831,CA,Big Creek 2,318,6,0,OP,HY,WAT,17.5,0.57,87405.143,45663.964,Distributed from 923 Generation And Fuel,1925,,CISO,Southern California Edison Co,37.2,-119.3069,California,0,0,0,0,0,0,0,17.5,0,0,0
1832,CA,Big Creek 2A,322,1,0,OP,HY,WAT,55,0.373,179622,134062,Distributed from 923 Generation And Fuel,1928,,CISO,Southern California Edison Co,37.200062,-119.30681,California,0,0,0,0,0,0,0,55,0,0,0
1833,CA,Big Creek 2A,322,2,0,OP,HY,WAT,55,0.373,179622,134062,Distributed from 923 Generation And Fuel,1928,,CISO,Southern California Edison Co,37.200062,-119.30681,California,0,0,0,0,0,0,0,55,0,0,0
1834,CA,Big Creek 3,319,1,0,OP,HY,WAT,34,0.499,148737.238,78316.126,Distributed from 923 Generation And Fuel,1923,,CISO,Southern California Edison Co,37.148517,-119.386623,California,0,0,0,0,0,0,0,34,0,0,0
1835,CA,Big Creek 3,319,2,0,OP,HY,WAT,34,0.499,148737.238,78316.126,Distributed from 923 Generation And Fuel,1923,,CISO,Southern California Edison Co,37.148517,-119.386623,California,0,0,0,0,0,0,0,34,0,0,0
1836,CA,Big Creek 3,319,3,0,OP,HY,WAT,34,0.499,148737.238,78316.126,Distributed from 923 Generation And Fuel,1923,,CISO,Southern California Edison Co,37.148517,-119.386623,California,0,0,0,0,0,0,0,34,0,0,0
1837,CA,Big Creek 3,319,4,0,OP,HY,WAT,36,0.499,157486.487,82922.957,Distributed from 923 Generation And Fuel,1948,,CISO,Southern California Edison Co,37.148517,-119.386623,California,0,0,0,0,0,0,0,36,0,0,0
1838,CA,Big Creek 3,319,5,0,OP,HY,WAT,36.5,0.499,159673.799,84074.665,Distributed from 923 Generation And Fuel,1980,,CISO,Southern California Edison Co,37.148517,-119.386623,California,0,0,0,0,0,0,0,36.5,0,0,0
1839,CA,Big Creek 4,320,1,0,OP,HY,WAT,50,0.432,189319,103251,Distributed from 923 Generation And Fuel,1951,,CISO,Southern California Edison Co,37.139,-119.4898,California,0,0,0,0,0,0,0,50,0,0,0
1840,CA,Big Creek 4,320,2,0,OP,HY,WAT,50,0.432,189319,103251,Distributed from 923 Generation And Fuel,1951,,CISO,Southern California Edison Co,37.139,-119.4898,California,0,0,0,0,0,0,0,50,0,0,0
1841,CA,Big Creek 8,321,1,0,OP,HY,WAT,30,0.324,85108.8,44464,Distributed from 923 Generation And Fuel,1921,,CISO,Southern California Edison Co,37.2096,-119.3289,California,0,0,0,0,0,0,0,30,0,0,0
1842,CA,Big Creek 8,321,2,0,OP,HY,WAT,45,0.324,127663.2,66696,Distributed from 923 Generation And Fuel,1929,,CISO,Southern California Edison Co,37.2096,-119.3289,California,0,0,0,0,0,0,0,45,0,0,0
1843,CA,Big Creek Water Works,10282,BCHY,0,OP,HY,WAT,5,0.238,10436,5452,Distributed from 923 Generation And Fuel,1987,,CISO,Pacific Gas & Electric Co,40.646733,-123.498008,California,0,0,0,0,0,0,0,5,0,0,0
1844,CA,Big Pine Creek,391,1,0,OP,HY,WAT,3.2,0.053,1484,775,Distributed from 923 Generation And Fuel,1925,,LDWP,Los Angeles Department of Water & Power,37.142795,-118.324075,California,0,0,0,0,0,0,0,3.2,0,0,0
1846,CA,Biola University,54296,EG1,0,OP,IC,NG,0.6,0.669,3514.091,1648.636,Distributed from 923 Generation And Fuel,1990,,CISO,Southern California Edison Co,33.906953,-118.013105,California,0,0.6,0,0,0,0,0,0,0,0,0
1847,CA,Biola University,54296,EG2,0,OP,IC,NG,0.6,0.669,3514.091,1648.636,Distributed from 923 Generation And Fuel,1990,,CISO,Southern California Edison Co,33.906953,-118.013105,California,0,0.6,0,0,0,0,0,0,0,0,0
1848,CA,Biola University,54296,EG3,0,OP,IC,NG,1,0.669,5856.818,2747.727,Distributed from 923 Generation And Fuel,2002,,CISO,Southern California Edison Co,33.906953,-118.013105,California,0,1,0,0,0,0,0,0,0,0,0
1849,CA,Bishop Creek 2,323,1,0,OP,HY,WAT,2.5,0.389,8514.041,4447.945,Distributed from 923 Generation And Fuel,1908,,CISO,Southern California Edison Co,37.273581,-118.573339,California,0,0,0,0,0,0,0,2.5,0,0,0
1850,CA,Bishop Creek 2,323,2,0,OP,HY,WAT,2.5,0.389,8514.041,4447.945,Distributed from 923 Generation And Fuel,1908,,CISO,Southern California Edison Co,37.273581,-118.573339,California,0,0,0,0,0,0,0,2.5,0,0,0
1851,CA,Bishop Creek 2,323,3,0,OP,HY,WAT,2.3,0.389,7832.918,4092.11,Distributed from 923 Generation And Fuel,1911,,CISO,Southern California Edison Co,37.273581,-118.573339,California,0,0,0,0,0,0,0,2.3,0,0,0
1852,CA,Bishop Creek 3,324,1,0,OP,HY,WAT,2.8,0.311,7626.667,3984.333,Distributed from 923 Generation And Fuel,1913,,CISO,Southern California Edison Co,37.301962,-118.531957,California,0,0,0,0,0,0,0,2.8,0,0,0
1853,CA,Bishop Creek 3,324,2,0,OP,HY,WAT,2.8,0.311,7626.667,3984.333,Distributed from 923 Generation And Fuel,1913,,CISO,Southern California Edison Co,37.301962,-118.531957,California,0,0,0,0,0,0,0,2.8,0,0,0
1854,CA,Bishop Creek 3,324,3,0,OP,HY,WAT,2.8,0.311,7626.667,3984.333,Distributed from 923 Generation And Fuel,1913,,CISO,Southern California Edison Co,37.301962,-118.531957,California,0,0,0,0,0,0,0,2.8,0,0,0
1855,CA,Bishop Creek 4,325,1,0,OP,HY,WAT,1,0.33,2888.78,1509.268,Distributed from 923 Generation And Fuel,1905,,CISO,Southern California Edison Co,37.323035,-118.501714,California,0,0,0,0,0,0,0,1,0,0,0
1856,CA,Bishop Creek 4,325,2,0,OP,HY,WAT,1,0.33,2888.78,1509.268,Distributed from 923 Generation And Fuel,1905,,CISO,Southern California Edison Co,37.323035,-118.501714,California,0,0,0,0,0,0,0,1,0,0,0
1857,CA,Bishop Creek 4,325,3,0,OP,HY,WAT,2,0.33,5777.561,3018.537,Distributed from 923 Generation And Fuel,1906,,CISO,Southern California Edison Co,37.323035,-118.501714,California,0,0,0,0,0,0,0,2,0,0,0
1858,CA,Bishop Creek 4,325,4,0,OP,HY,WAT,2.2,0.33,6355.317,3320.39,Distributed from 923 Generation And Fuel,1907,,CISO,Southern California Edison Co,37.323035,-118.501714,California,0,0,0,0,0,0,0,2.2,0,0,0
1859,CA,Bishop Creek 4,325,5,0,OP,HY,WAT,2,0.33,5777.561,3018.537,Distributed from 923 Generation And Fuel,1909,,CISO,Southern California Edison Co,37.323035,-118.501714,California,0,0,0,0,0,0,0,2,0,0,0
1860,CA,Bishop Creek 5,326,1,0,OP,HY,WAT,2,0.275,4818.667,2517.333,Distributed from 923 Generation And Fuel,1943,,CISO,Southern California Edison Co,37.3344,-118.4797,California,0,0,0,0,0,0,0,2,0,0,0
1861,CA,Bishop Creek 5,326,2,0,OP,HY,WAT,2.5,0.275,6023.333,3146.667,Distributed from 923 Generation And Fuel,1919,,CISO,Southern California Edison Co,37.3344,-118.4797,California,0,0,0,0,0,0,0,2.5,0,0,0
1862,CA,Bishop Creek 6,327,1,0,OP,HY,WAT,1.6,0.572,8024,4192,Distributed from 923 Generation And Fuel,1913,,CISO,Southern California Edison Co,37.3499,-118.4628,California,0,0,0,0,0,0,0,1.6,0,0,0
1863,CA,Black Butte,7229,1,0,OP,HY,WAT,6.1,0.177,9463,4944,Distributed from 923 Generation And Fuel,1988,,CISO,City of Santa Clara - (CA),39.814905,-122.332335,California,0,0,0,0,0,0,0,6.1,0,0,0
1867,CA,Blacksand Generating Facility,56090,D182,0,OP,GT,OG,4,0.407,14259,5860,Distributed from 923 Generation And Fuel,2000,,CISO,Southern California Edison Co,33.9328,-117.855,California,0,0,0,0,0,0,0,0,0,4,0
1868,CA,Blacksand Generating Facility,56090,D189,0,OP,GT,OG,3.7,0.407,13189.575,5420.5,Distributed from 923 Generation And Fuel,2000,,CISO,Southern California Edison Co,33.9328,-117.855,California,0,0,0,0,0,0,0,0,0,3.7,0
1869,CA,Blacksand Generating Facility,56090,D190,0,OP,GT,OG,0.3,0.407,1069.425,439.5,Distributed from 923 Generation And Fuel,2012,,CISO,Southern California Edison Co,33.9328,-117.855,California,0,0,0,0,0,0,0,0,0,0.3,0
1871,CA,Blue Lake Power LLC,10764,GEN1,1,OP,ST,WDS,13.8,0,50,0,EIA-923 Generator File,1985,,CISO,Pacific Gas & Electric Co,40.8786,-123.9942,California,0,0,0,0,0,0,0,0,0,13.8,0
1890,CA,Bolthouse S&P and Rowen Farms Solar,56862,1,0,OP,PV,SUN,0.3,0.359,944.5,502.5,Distributed from 923 Generation And Fuel,2008,,CISO,Southern California Edison Co,34.5644,-117.6933,California,0,0,0,0,0,0.3,0,0,0,0,0
1891,CA,Bolthouse S&P and Rowen Farms Solar,56862,2,0,OP,PV,SUN,0.3,0.359,944.5,502.5,Distributed from 923 Generation And Fuel,2008,,CISO,Southern California Edison Co,34.5644,-117.6933,California,0,0,0,0,0,0.3,0,0,0,0,0
1892,CA,Bolthouse S&P and Rowen Farms Solar,56862,3,0,OP,PV,SUN,0.3,0.359,944.5,502.5,Distributed from 923 Generation And Fuel,2008,,CISO,Southern California Edison Co,34.5644,-117.6933,California,0,0,0,0,0,0.3,0,0,0,0,0
1893,CA,Bolthouse S&P and Rowen Farms Solar,56862,4,0,OP,PV,SUN,0.3,0.359,944.5,502.5,Distributed from 923 Generation And Fuel,2008,,CISO,Southern California Edison Co,34.5644,-117.6933,California,0,0,0,0,0,0.3,0,0,0,0,0
1895,CA,Borel,328,1,0,OP,HY,WAT,3,,-54.5,-28.473,Data from EIA-923 Generator File overwritten with distributed data from EIA-923 Generation and Fuel,1904,,CISO,Southern California Edison Co,35.588069,-118.524804,California,0,0,0,0,0,0,0,3,0,0,0
1896,CA,Borel,328,2,0,OP,HY,WAT,3,,-54.5,-28.473,Data from EIA-923 Generator File overwritten with distributed data from EIA-923 Generation and Fuel,1904,,CISO,Southern California Edison Co,35.588069,-118.524804,California,0,0,0,0,0,0,0,3,0,0,0
1897,CA,Borel,328,3,0,OP,HY,WAT,6,,-109,-56.946,Data from EIA-923 Generator File overwritten with distributed data from EIA-923 Generation and Fuel,1932,,CISO,Southern California Edison Co,35.588069,-118.524804,California,0,0,0,0,0,0,0,6,0,0,0
1898,CA,Borrego Springs Energy Storage,60565,SES1,0,OP,BA,MWH,0.5,,-37,-16.441,Data from EIA-923 Generator File overwritten with distributed data from EIA-923 Generation and Fuel,2012,,CISO,San Diego Gas & Electric Co,33.27011,-116.3496,California,0,0,0,0,0,0,0,0,0,0.5,0
1899,CA,Borrego Springs Energy Storage,60565,SES2,0,OP,BA,MWH,1,,-74,-32.882,Data from EIA-923 Generator File overwritten with distributed data from EIA-923 Generation and Fuel,2014,,CISO,San Diego Gas & Electric Co,33.27011,-116.3496,California,0,0,0,0,0,0,0,0,0,1,0
1901,CA,"Bowerman Power LFG, LLC",59461,GEN01,0,OP,IC,LFG,3.4,0.517,15400.429,8696,Distributed from 923 Generation And Fuel,2016,,CISO,Southern California Edison Co,33.718889,-117.702222,California,0,0,0,0,0,0,0,0,0,3.4,0
1902,CA,"Bowerman Power LFG, LLC",59461,GEN02,0,OP,IC,LFG,3.4,0.517,15400.429,8696,Distributed from 923 Generation And Fuel,2016,,CISO,Southern California Edison Co,33.718889,-117.702222,California,0,0,0,0,0,0,0,0,0,3.4,0
1903,CA,"Bowerman Power LFG, LLC",59461,GEN03,0,OP,IC,LFG,3.4,0.517,15400.429,8696,Distributed from 923 Generation And Fuel,2016,,CISO,Southern California Edison Co,33.718889,-117.702222,California,0,0,0,0,0,0,0,0,0,3.4,0
1904,CA,"Bowerman Power LFG, LLC",59461,GEN04,0,OP,IC,LFG,3.4,0.517,15400.429,8696,Distributed from 923 Generation And Fuel,2016,,CISO,Southern California Edison Co,33.718889,-117.702222,California,0,0,0,0,0,0,0,0,0,3.4,0
1905,CA,"Bowerman Power LFG, LLC",59461,GEN05,0,OP,IC,LFG,3.4,0.517,15400.429,8696,Distributed from 923 Generation And Fuel,2016,,CISO,Southern California Edison Co,33.718889,-117.702222,California,0,0,0,0,0,0,0,0,0,3.4,0
1906,CA,"Bowerman Power LFG, LLC",59461,GEN06,0,OP,IC,LFG,3.4,0.517,15400.429,8696,Distributed from 923 Generation And Fuel,2016,,CISO,Southern California Edison Co,33.718889,-117.702222,California,0,0,0,0,0,0,0,0,0,3.4,0
1907,CA,"Bowerman Power LFG, LLC",59461,GEN07,0,OP,IC,LFG,3.4,0.517,15400.429,8696,Distributed from 923 Generation And Fuel,2016,,CISO,Southern California Edison Co,33.718889,-117.702222,California,0,0,0,0,0,0,0,0,0,3.4,0
1908,CA,Bowman,50546,GEN1,0,OP,HY,WAT,3.6,0.466,14700,7680,Distributed from 923 Generation And Fuel,1986,,CISO,Pacific Gas & Electric Co,39.448352,-120.653417,California,0,0,0,0,0,0,0,3.6,0,0,0
1909,CA,Box Canyon Dam,50179,GEN1,0,OP,HY,WAT,2.5,0.546,11956,6246.5,Distributed from 923 Generation And Fuel,1986,,PACW,PacifiCorp,41.2792,-122.3292,California,0,0,0,0,0,0,0,2.5,0,0,0
1910,CA,Box Canyon Dam,50179,GEN2,0,OP,HY,WAT,2.5,0.546,11956,6246.5,Distributed from 923 Generation And Fuel,1986,,PACW,PacifiCorp,41.2792,-122.3292,California,0,0,0,0,0,0,0,2.5,0,0,0
1920,CA,Brea Expansion Plant,58007,G1,0,OP,CT,LFG,6.8,0.765,45580.3,18561,EIA-923 Generator File,2012,,CISO,Southern California Edison Co,33.932022,-117.840233,California,0,0,0,0,0,0,0,0,0,6.8,0
1921,CA,Brea Expansion Plant,58007,G2,0,OP,CT,LFG,6.8,0.761,45311.61,18574,EIA-923 Generator File,2012,,CISO,Southern California Edison Co,33.932022,-117.840233,California,0,0,0,0,0,0,0,0,0,6.8,0
1922,CA,Brea Expansion Plant,58007,G3,0,OP,CT,LFG,6.8,0.76,45266.02,18569,EIA-923 Generator File,2012,,CISO,Southern California Edison Co,33.932022,-117.840233,California,0,0,0,0,0,0,0,0,0,6.8,0
1923,CA,Brea Expansion Plant,58007,G4,0,OP,CT,LFG,6.8,0.762,45416.37,18696,EIA-923 Generator File,2012,,CISO,Southern California Edison Co,33.932022,-117.840233,California,0,0,0,0,0,0,0,0,0,6.8,0
1924,CA,Brea Expansion Plant,58007,G5,4,OP,CA,LFG,10,0.777,68038.71,27861,EIA-923 Generator File,2012,,CISO,Southern California Edison Co,33.932022,-117.840233,California,0,0,0,0,0,0,0,0,0,10,0
1926,CA,Broadridge Cogen,57580,CG1,0,OP,IC,NG,2.1,0.343,6309,2960,Distributed from 923 Generation And Fuel,2008,,CISO,Pacific Gas & Electric Co,38.6183,-121.0564,California,0,2.1,0,0,0,0,0,0,0,0,0
1927,CA,Broadridge Cogen,57580,CG2,0,OP,IC,NG,2.1,0.343,6309,2960,Distributed from 923 Generation And Fuel,2008,,CISO,Pacific Gas & Electric Co,38.6183,-121.0564,California,0,2.1,0,0,0,0,0,0,0,0,0
1931,CA,Brookfield Tehachapi 1,57962,BT1,0,OP,WT,WND,102,0.321,286428,145907,Distributed from 923 Generation And Fuel,2012,,CISO,Southern California Edison Co,35.008333,-118.241389,California,0,0,0,0,102,0,0,0,0,0,0
1933,CA,Bucks Creek,220,H1,0,OP,HY,WAT,33,0.45,130196.5,68020,Distributed from 923 Generation And Fuel,1928,,CISO,Pacific Gas & Electric Co,39.91062,-121.327692,California,0,0,0,0,0,0,0,33,0,0,0
1934,CA,Bucks Creek,220,H2,0,OP,HY,WAT,33,0.45,130196.5,68020,Distributed from 923 Generation And Fuel,1928,,CISO,Pacific Gas & Electric Co,39.91062,-121.327692,California,0,0,0,0,0,0,0,33,0,0,0
1935,CA,Buena Vista Biomass Power,58472,1,1,OP,ST,WDS,22.5,0.088,17414,0,EIA-923 Generator File,2012,,CISO,Pacific Gas & Electric Co,38.277778,-120.913611,California,0,0,0,0,0,0,0,0,0,22.5,0
1936,CA,Buena Vista Energy LLC,56446,1,0,OP,WT,WND,38,0.285,94980,64211,Distributed from 923 Generation And Fuel,2006,,CISO,Pacific Gas & Electric Co,37.805,-121.6672,California,0,0,0,0,38,0,0,0,0,0,0
1937,CA,Buidling L,60154,BLDG1,0,OP,PV,SUN,1,0.007,57,0,Distributed from 923 Generation And Fuel,2016,,CISO,Southern California Edison Co,33.912917,-118.041944,California,0,0,0,0,0,1,0,0,0,0,0
1938,CA,Building F,60151,BLDGF,0,OP,PV,SUN,1.3,0.006,71,0,Distributed from 923 Generation And Fuel,2016,,CISO,Southern California Edison Co,33.914356,-118.050189,California,0,0,0,0,0,1.3,0,0,0,0,0
1939,CA,Building G,60153,BLDGG,0,OP,PV,SUN,1.2,0.008,86,28,Distributed from 923 Generation And Fuel,2016,,CISO,Southern California Edison Co,33.912917,-118.050561,California,0,0,0,0,0,1.2,0,0,0,0,0
1940,CA,Burney Creek,10706,GEN1,0,OP,HY,WAT,3,0.272,7147,3734,Distributed from 923 Generation And Fuel,1990,,CISO,Pacific Gas & Electric Co,40.8579,-121.7225,California,0,0,0,0,0,0,0,3,0,0,0
1941,CA,Burney Forest Products,10652,GEN1,2,OP,ST,WDS,31,0.772,209592,94780,EIA-923 Generator File,1989,,CISO,Pacific Gas & Electric Co,40.879719,-121.720342,California,0,0,0,0,0,0,0,0,0,31,0
1943,CA,Butt Valley,221,1,0,OP,HY,WAT,40,0.219,76608,40023,Distributed from 923 Generation And Fuel,1958,,CISO,Pacific Gas & Electric Co,40.175656,-121.190663,California,0,0,0,0,0,0,0,40,0,0,0
1944,CA,Butte College Main Campus Solar,57970,SOL1,0,OP,PV,SUN,3.5,0.166,5092,2709,Distributed from 923 Generation And Fuel,2011,,CISO,Pacific Gas & Electric Co,39.648056,-121.644167,California,0,0,0,0,0,3.5,0,0,0,0,0
1945,CA,C P Kelco San Diego Plant,52147,GEN1,0,OP,GT,NG,8,0.363,25422.857,11927.143,Distributed from 923 Generation And Fuel,1983,,CISO,San Diego Gas & Electric Co,32.6947,-117.1436,California,0,8,0,0,0,0,0,0,0,0,0
1946,CA,C P Kelco San Diego Plant,52147,GEN2,0,OP,GT,NG,10,0.363,31778.571,14908.929,Distributed from 923 Generation And Fuel,1983,,CISO,San Diego Gas & Electric Co,32.6947,-117.1436,California,0,10,0,0,0,0,0,0,0,0,0
1947,CA,C P Kelco San Diego Plant,52147,GEN3,0,OP,GT,NG,10,0.363,31778.571,14908.929,Distributed from 923 Generation And Fuel,1983,,CISO,San Diego Gas & Electric Co,32.6947,-117.1436,California,0,10,0,0,0,0,0,0,0,0,0
1948,CA,C&H Sugar Plant,58251,TG3,0,OP,ST,PUR,4,0.615,21535,9569,Distributed from 923 Generation And Fuel,1958,,CISO,Pacific Gas & Electric Co,38.057222,-122.218889,California,0,0,0,0,0,0,0,0,0,4,0
1949,CA,C&H Sugar Plant,58251,TG4,0,OP,ST,PUR,4,0.615,21535,9569,Distributed from 923 Generation And Fuel,1957,,CISO,Pacific Gas & Electric Co,38.057222,-122.218889,California,0,0,0,0,0,0,0,0,0,4,0
1953,CA,Cabazon Wind Farm,50552,WGNS,0,OP,WT,WND,39.7,0.166,57869,31907,Distributed from 923 Generation And Fuel,1999,,CISO,Southern California Edison Co,33.914986,-116.71026,California,0,0,0,0,39.7,0,0,0,0,0,0
1954,CA,Cabazon Wind Partners,56011,V-47,0,OP,WT,WND,41,0.325,116855,55228,Distributed from 923 Generation And Fuel,2002,,CISO,Southern California Edison Co,33.9172,-116.735,California,0,0,0,0,41,0,0,0,0,0,0
1955,CA,Calabasas Gas to Energy Facility,57163,GEN1,0,OP,GT,LFG,4.6,0.286,11509.667,4901,Distributed from 923 Generation And Fuel,2010,,CISO,Southern California Edison Co,34.1511,-118.7236,California,0,0,0,0,0,0,0,0,0,4.6,0
1956,CA,Calabasas Gas to Energy Facility,57163,GEN2,0,OP,GT,LFG,4.6,0.286,11509.667,4901,Distributed from 923 Generation And Fuel,2010,,CISO,Southern California Edison Co,34.1511,-118.7236,California,0,0,0,0,0,0,0,0,0,4.6,0
1957,CA,Calabasas Gas to Energy Facility,57163,GEN3,0,OP,GT,LFG,4.6,0.286,11509.667,4901,Distributed from 923 Generation And Fuel,2010,,CISO,Southern California Edison Co,34.1511,-118.7236,California,0,0,0,0,0,0,0,0,0,4.6,0
1961,CA,California Institute of Technology,10262,GEN6,0,OP,CT,NG,10.5,0.754,69391,32188,EIA-923 Generator File,2003,,CISO,City of Pasadena - (CA),34.138467,-118.1256,California,10.5,0,0,0,0,0,0,0,0,0,0
1962,CA,California Institute of Technology,10262,GEN7,0,OP,CA,NG,2.5,0.511,11180,4141,EIA-923 Generator File,2003,,CISO,City of Pasadena - (CA),34.138467,-118.1256,California,2.5,0,0,0,0,0,0,0,0,0,0
1968,CA,California PV Energy at ISD WWTP,59283,W4236,0,OP,PV,SUN,1,0.25,2193,1167,Distributed from 923 Generation And Fuel,2014,,CISO,Pacific Gas & Electric Co,38.001111,-121.703889,California,0,0,0,0,0,1,0,0,0,0,0
1969,CA,California State University San Bernardi,57544,FC01,0,OP,FC,NG,1.4,0.547,6710,3148,Distributed from 923 Generation And Fuel,2013,,CISO,Southern California Edison Co,34.185833,-117.324167,California,0,1.4,0,0,0,0,0,0,0,0,0
1970,CA,California Valley Solar Ranch,57439,HPR2,0,OP,PV,SUN,32.3,0.311,87899.963,48100.622,Distributed from 923 Generation And Fuel,2013,,CISO,Pacific Gas & Electric Co,35.323739,-119.91663,California,0,0,0,0,0,32.3,0,0,0,0,0
1971,CA,California Valley Solar Ranch,57439,HPR2A,0,OP,PV,SUN,21,0.311,57148.583,31272.85,Distributed from 923 Generation And Fuel,2012,,CISO,Pacific Gas & Electric Co,35.323739,-119.91663,California,0,0,0,0,0,21,0,0,0,0,0
1972,CA,California Valley Solar Ranch,57439,HPR2B,0,OP,PV,SUN,86.5,0.311,235397.734,128814.359,Distributed from 923 Generation And Fuel,2013,,CISO,Pacific Gas & Electric Co,35.323739,-119.91663,California,0,0,0,0,0,86.5,0,0,0,0,0
1973,CA,California Valley Solar Ranch,57439,HPR2C,0,OP,PV,SUN,70,0.311,190495.276,104242.834,Distributed from 923 Generation And Fuel,2013,,CISO,Pacific Gas & Electric Co,35.323739,-119.91663,California,0,0,0,0,0,70,0,0,0,0,0
1974,CA,California Valley Solar Ranch,57439,HPR2D,0,OP,PV,SUN,40,0.311,108854.444,59567.334,Distributed from 923 Generation And Fuel,2013,,CISO,Pacific Gas & Electric Co,35.323739,-119.91663,California,0,0,0,0,0,40,0,0,0,0,0
1976,CA,Calistoga Power Plant,50066,UNT1,0,OP,ST,GEO,88.2,0.361,278824.5,111556,Distributed from 923 Generation And Fuel,1984,,CISO,Pacific Gas & Electric Co,38.7879,-122.7434,California,0,0,0,0,0,0,0,0,0,88.2,0
1977,CA,Calistoga Power Plant,50066,UNT2,0,OP,ST,GEO,88.2,0.361,278824.5,111556,Distributed from 923 Generation And Fuel,1984,,CISO,Pacific Gas & Electric Co,38.7879,-122.7434,California,0,0,0,0,0,0,0,0,0,88.2,0
1978,CA,CalPeak Power - Panoche,55508,CPP2,0,OP,GT,NG,60.5,0.034,17941,8417,Distributed from 923 Generation And Fuel,2001,,CISO,Pacific Gas & Electric Co,36.6535,-120.5783,California,0,60.5,0,0,0,0,0,0,0,0,0
1979,CA,CalPeak Power - Panoche,55508,8,0,OP,GT,NG,49.9,0.019,8135,3817,Distributed from 923 Generation And Fuel,1973,,CISO,Pacific Gas & Electric Co,36.6535,-120.5783,California,0,49.9,0,0,0,0,0,0,0,0,0
1980,CA,CalPeak Power Border Peaker Plant,55510,CPP4,0,OP,GT,NG,60.5,0.022,11404,5350,Distributed from 923 Generation And Fuel,2001,,CISO,San Diego Gas & Electric Co,32.562448,-116.943869,California,0,60.5,0,0,0,0,0,0,0,0,0
1981,CA,CalPeak Power Enterprise Peaker Plant,55513,CPP7,0,OP,GT,NG,58.9,0.024,12176,5712,Distributed from 923 Generation And Fuel,2001,,CISO,San Diego Gas & Electric Co,33.121943,-117.117441,California,0,58.9,0,0,0,0,0,0,0,0,0
1982,CA,CalPeak Power Vaca Dixon Peaker Plant,55499,CPP1,0,OP,GT,NG,60.5,0.026,13758,6455,Distributed from 923 Generation And Fuel,2002,,CISO,Pacific Gas & Electric Co,38.398867,-121.923973,California,0,60.5,0,0,0,0,0,0,0,0,0
1983,CA,CalRenew-1,56768,CR1,0,OP,PV,SUN,5,0.214,9358,4978,Distributed from 923 Generation And Fuel,2010,,CISO,Pacific Gas & Electric Co,36.7575,-120.3658,California,0,0,0,0,0,5,0,0,0,0,0
1984,CA,Caltech Central,57460,CL00,0,OP,FC,OBG,0.1,0.001,0.727,0.273,Distributed from 923 Generation And Fuel,2010,2020,CISO,Southern California Edison Co,34.1358,-118.1267,California,0,0,0,0,0,0,0,0,0,0.1,0
1985,CA,Caltech Central,57460,CL01,0,OP,FC,OBG,0.1,0.001,0.727,0.273,Distributed from 923 Generation And Fuel,2010,2020,CISO,Southern California Edison Co,34.1358,-118.1267,California,0,0,0,0,0,0,0,0,0,0.1,0
1986,CA,Caltech Central,57460,CL02,0,OP,FC,OBG,0.1,0.001,0.727,0.273,Distributed from 923 Generation And Fuel,2010,2020,CISO,Southern California Edison Co,34.1358,-118.1267,California,0,0,0,0,0,0,0,0,0,0.1,0
1987,CA,Caltech Central,57460,CL03,0,OP,FC,OBG,0.1,0.001,0.727,0.273,Distributed from 923 Generation And Fuel,2010,2020,CISO,Southern California Edison Co,34.1358,-118.1267,California,0,0,0,0,0,0,0,0,0,0.1,0
1988,CA,Caltech Central,57460,CL04,0,OP,FC,OBG,0.1,0.001,0.727,0.273,Distributed from 923 Generation And Fuel,2010,2020,CISO,Southern California Edison Co,34.1358,-118.1267,California,0,0,0,0,0,0,0,0,0,0.1,0
1989,CA,Caltech Central,57460,CL05,0,OP,FC,OBG,0.1,0.001,0.727,0.273,Distributed from 923 Generation And Fuel,2010,2020,CISO,Southern California Edison Co,34.1358,-118.1267,California,0,0,0,0,0,0,0,0,0,0.1,0
1990,CA,Caltech Central,57460,CL06,0,OP,FC,OBG,0.1,0.001,0.727,0.273,Distributed from 923 Generation And Fuel,2010,2020,CISO,Southern California Edison Co,34.1358,-118.1267,California,0,0,0,0,0,0,0,0,0,0.1,0
1991,CA,Caltech Central,57460,CL07,0,OP,FC,OBG,0.1,0.001,0.727,0.273,Distributed from 923 Generation And Fuel,2010,2020,CISO,Southern California Edison Co,34.1358,-118.1267,California,0,0,0,0,0,0,0,0,0,0.1,0
1992,CA,Caltech Central,57460,CL08,0,OP,FC,OBG,0.1,0.001,0.727,0.273,Distributed from 923 Generation And Fuel,2010,2020,CISO,Southern California Edison Co,34.1358,-118.1267,California,0,0,0,0,0,0,0,0,0,0.1,0
1993,CA,Caltech Central,57460,CL09,0,OP,FC,OBG,0.1,0.001,0.727,0.273,Distributed from 923 Generation And Fuel,2010,2020,CISO,Southern California Edison Co,34.1358,-118.1267,California,0,0,0,0,0,0,0,0,0,0.1,0
1994,CA,Caltech Central,57460,CL10,0,OP,FC,OBG,0.1,0.001,0.727,0.273,Distributed from 923 Generation And Fuel,2010,2020,CISO,Southern California Edison Co,34.1358,-118.1267,California,0,0,0,0,0,0,0,0,0,0.1,0
1995,CA,Camanche,537,1,0,OP,HY,WAT,3.6,0.175,5516.333,2882,Distributed from 923 Generation And Fuel,1983,,CISO,Pacific Gas & Electric Co,38.2268,-121.0245,California,0,0,0,0,0,0,0,3.6,0,0,0
1996,CA,Camanche,537,2,0,OP,HY,WAT,3.6,0.175,5516.333,2882,Distributed from 923 Generation And Fuel,1983,,CISO,Pacific Gas & Electric Co,38.2268,-121.0245,California,0,0,0,0,0,0,0,3.6,0,0,0
1997,CA,Camanche,537,3,0,OP,HY,WAT,3.6,0.175,5516.333,2882,Distributed from 923 Generation And Fuel,1983,,CISO,Pacific Gas & Electric Co,38.2268,-121.0245,California,0,0,0,0,0,0,0,3.6,0,0,0
1998,CA,Cameron Ridge LLC,10586,EXIS,0,OP,WT,WND,59.6,0.333,173868,84926,Distributed from 923 Generation And Fuel,1984,,CISO,Southern California Edison Co,35.075,-118.3158,California,0,0,0,0,59.6,0,0,0,0,0,0
2001,CA,Camp Far West,531,1,0,OP,HY,WAT,7.2,0.439,27711,14477,Distributed from 923 Generation And Fuel,1985,,CISO,Pacific Gas & Electric Co,39.048802,-121.316966,California,0,0,0,0,0,0,0,7.2,0,0,0
2002,CA,Campo Verde Solar,58467,CVS1,0,OP,PV,SUN,147.4,0.281,362327,165917,Distributed from 923 Generation And Fuel,2013,,CISO,San Diego Gas & Electric Co,32.753333,-115.726389,California,0,0,0,0,0,147.4,0,0,0,0,0
2003,CA,Cantua Solar Station,57522,1,0,OP,PV,SUN,20,0.25,43802,23303,Distributed from 923 Generation And Fuel,2012,,CISO,Pacific Gas & Electric Co,36.425085,-120.343543,California,0,0,0,0,0,20,0,0,0,0,0
2004,CA,Canyon Crest Academy,60568,SES,0,OP,BA,MWH,1,0,3,1,Distributed from 923 Generation And Fuel,2014,,CISO,San Diego Gas & Electric Co,32.95907,-117.191622,California,0,0,0,0,0,0,0,0,0,1,0
2005,CA,Canyon Power Plant,57027,CPP1,0,OP,GT,NG,50,0.07,30773.5,18875,Distributed from 923 Generation And Fuel,2011,,CISO,City of Anaheim - (CA),33.858056,-117.861667,California,0,50,0,0,0,0,0,0,0,0,0
2006,CA,Canyon Power Plant,57027,CPP2,0,OP,GT,NG,50,0.07,30773.5,18875,Distributed from 923 Generation And Fuel,2011,,CISO,City of Anaheim - (CA),33.858056,-117.861667,California,0,50,0,0,0,0,0,0,0,0,0
2007,CA,Canyon Power Plant,57027,CPP3,0,OP,GT,NG,50,0.07,30773.5,18875,Distributed from 923 Generation And Fuel,2011,,CISO,City of Anaheim - (CA),33.858056,-117.861667,California,0,50,0,0,0,0,0,0,0,0,0
2008,CA,Canyon Power Plant,57027,CPP4,0,OP,GT,NG,50,0.07,30773.5,18875,Distributed from 923 Generation And Fuel,2011,,CISO,City of Anaheim - (CA),33.858056,-117.861667,California,0,50,0,0,0,0,0,0,0,0,0
2009,CA,Caribou 1,222,1,0,OP,HY,WAT,23.8,0.132,27568.978,14403.192,Distributed from 923 Generation And Fuel,1921,,CISO,Pacific Gas & Electric Co,40.085476,-121.148241,California,0,0,0,0,0,0,0,23.8,0,0,0
2010,CA,Caribou 1,222,2,0,OP,HY,WAT,25,0.132,28959.011,15129.404,Distributed from 923 Generation And Fuel,1921,,CISO,Pacific Gas & Electric Co,40.085476,-121.148241,California,0,0,0,0,0,0,0,25,0,0,0
2011,CA,Caribou 1,222,3,0,OP,HY,WAT,25,0.132,28959.011,15129.404,Distributed from 923 Generation And Fuel,1924,,CISO,Pacific Gas & Electric Co,40.085476,-121.148241,California,0,0,0,0,0,0,0,25,0,0,0
2012,CA,Caribou 2,223,4,0,OP,HY,WAT,60.3,0.298,157224.962,93454.771,Distributed from 923 Generation And Fuel,1958,,CISO,Pacific Gas & Electric Co,40.085997,-121.149373,California,0,0,0,0,0,0,0,60.3,0,0,0
2013,CA,Caribou 2,223,5,0,OP,HY,WAT,57.6,0.298,150185.038,89270.229,Distributed from 923 Generation And Fuel,1958,,CISO,Pacific Gas & Electric Co,40.085997,-121.149373,California,0,0,0,0,0,0,0,57.6,0,0,0
2025,CA,Cascade Solar,58590,1,0,OP,PV,SUN,18.5,0.324,52502,27931,Distributed from 923 Generation And Fuel,2014,,CISO,Southern California Edison Co,34.157222,-116.234444,California,0,0,0,0,0,18.5,0,0,0,0,0
2026,CA,Castaic,392,1,0,OP,PS,WAT,271,0.027,63153.667,29808.833,Distributed from 923 Generation And Fuel,1973,,LDWP,Los Angeles Department of Water & Power,34.587237,-118.656638,California,0,0,0,0,0,0,0,271,0,0,0
2027,CA,Castaic,392,2,0,OP,PS,WAT,271,0.027,63153.667,29808.833,Distributed from 923 Generation And Fuel,1974,,LDWP,Los Angeles Department of Water & Power,34.587237,-118.656638,California,0,0,0,0,0,0,0,271,0,0,0
2028,CA,Castaic,392,3,0,OP,PS,WAT,271,0.027,63153.667,29808.833,Distributed from 923 Generation And Fuel,1977,,LDWP,Los Angeles Department of Water & Power,34.587237,-118.656638,California,0,0,0,0,0,0,0,271,0,0,0
2029,CA,Castaic,392,4,0,OP,PS,WAT,271,0.027,63153.667,29808.833,Distributed from 923 Generation And Fuel,1977,,LDWP,Los Angeles Department of Water & Power,34.587237,-118.656638,California,0,0,0,0,0,0,0,271,0,0,0
2030,CA,Castaic,392,5,0,OP,PS,WAT,271,0.027,63153.667,29808.833,Distributed from 923 Generation And Fuel,1978,,LDWP,Los Angeles Department of Water & Power,34.587237,-118.656638,California,0,0,0,0,0,0,0,271,0,0,0
2031,CA,Castaic,392,6,0,OP,PS,WAT,271,0.027,63153.667,29808.833,Distributed from 923 Generation And Fuel,1978,,LDWP,Los Angeles Department of Water & Power,34.587237,-118.656638,California,0,0,0,0,0,0,0,271,0,0,0
2032,CA,Castaic,392,7,0,OP,HY,WAT,56,0,0,0,Distributed from 923 Generation And Fuel,1972,,LDWP,Los Angeles Department of Water & Power,34.587237,-118.656638,California,0,0,0,0,0,0,0,56,0,0,0
2033,CA,Castle Rock Vineyards,57870,SOLAR,0,OP,PV,SUN,1,0.198,1733,922,Distributed from 923 Generation And Fuel,2010,,CISO,Southern California Edison Co,35.801111,-119.110556,California,0,0,0,0,0,1,0,0,0,0,0
2034,CA,Castor Solar,60277,CASTR,0,OP,PV,SUN,1.5,0.111,1457,939,Distributed from 923 Generation And Fuel,2016,,CISO,Pacific Gas & Electric Co,35.211044,-119.387258,California,0,0,0,0,0,1.5,0,0,0,0,0
2035,CA,"Catalina Solar 2, LLC",59334,INV-1,0,OP,PV,SUN,18,0.358,56517,30067,Distributed from 923 Generation And Fuel,2015,,CISO,Southern California Edison Co,34.812222,-118.352778,California,0,0,0,0,0,18,0,0,0,0,0
2036,CA,Catalina Solar LLC,57708,INV,0,OP,PV,SUN,110,0.28,269368,133746,Distributed from 923 Generation And Fuel,2012,,CISO,Southern California Edison Co,34.938261,-118.334492,California,0,0,0,0,0,110,0,0,0,0,0
2037,CA,CBS Studio Center,58440,9560,0,OP,FC,NG,0.4,0.452,1582.667,742.5,Distributed from 923 Generation And Fuel,2013,,LDWP,Los Angeles Department of Water & Power,34.145,-118.390833,California,0,0.4,0,0,0,0,0,0,0,0,0
2038,CA,CBS Studio Center,58440,9580,0,OP,FC,NG,0.4,0.452,1582.667,742.5,Distributed from 923 Generation And Fuel,2013,,LDWP,Los Angeles Department of Water & Power,34.145,-118.390833,California,0,0.4,0,0,0,0,0,0,0,0,0
2039,CA,CBS Studio Center,58440,9581,0,OP,FC,NG,0.4,0.452,1582.667,742.5,Distributed from 923 Generation And Fuel,2013,,LDWP,Los Angeles Department of Water & Power,34.145,-118.390833,California,0,0.4,0,0,0,0,0,0,0,0,0
2040,CA,CBS Studio Center,58440,9583,0,OP,FC,NG,0.4,0.452,1582.667,742.5,Distributed from 923 Generation And Fuel,2013,,LDWP,Los Angeles Department of Water & Power,34.145,-118.390833,California,0,0.4,0,0,0,0,0,0,0,0,0
2041,CA,CBS Studio Center,58440,9585,0,OP,FC,NG,0.4,0.452,1582.667,742.5,Distributed from 923 Generation And Fuel,2013,,LDWP,Los Angeles Department of Water & Power,34.145,-118.390833,California,0,0.4,0,0,0,0,0,0,0,0,0
2042,CA,CBS Studio Center,58440,9587,0,OP,FC,NG,0.4,0.452,1582.667,742.5,Distributed from 923 Generation And Fuel,2013,,LDWP,Los Angeles Department of Water & Power,34.145,-118.390833,California,0,0.4,0,0,0,0,0,0,0,0,0
2043,CA,CBS Television City,58253,GEN1,0,OP,PV,SUN,1.6,0.182,2553,1358,Distributed from 923 Generation And Fuel,2013,,LDWP,Los Angeles Department of Water & Power,34.075,-118.36,California,0,0,0,0,0,1.6,0,0,0,0,0
2044,CA,CCCSD Wastewater Treatment Plnt,57573,S188,0,OP,GT,NG,3.5,0.631,19351,9079,Distributed from 923 Generation And Fuel,1995,,CISO,Pacific Gas & Electric Co,37.9978,-122.0697,California,0,3.5,0,0,0,0,0,0,0,0,0
2045,CA,CDCR (CA) - Pleasant Valley State Prison,59748,1,0,OP,PV,SUN,1.6,0.269,3766,2004,Distributed from 923 Generation And Fuel,2014,,CISO,Pacific Gas & Electric Co,36.137219,-120.224445,California,0,0,0,0,0,1.6,0,0,0,0,0
2050,CA,CED Ducor 1,60078,DU1CA,0,OP,PV,SUN,20,0.013,2193,0,Distributed from 923 Generation And Fuel,2016,,CISO,Southern California Edison Co,35.856278,-119.068414,California,0,0,0,0,0,20,0,0,0,0,0
2051,CA,CED Ducor 2,60079,DU2CA,0,OP,PV,SUN,20,0.011,1978,0,Distributed from 923 Generation And Fuel,2016,,CISO,Southern California Edison Co,35.844167,-119.068069,California,0,0,0,0,0,20,0,0,0,0,0
2052,CA,CED Ducor 3,60080,DU3CA,0,OP,PV,SUN,15,0.011,1396,0,Distributed from 923 Generation And Fuel,2016,,CISO,Southern California Edison Co,35.845378,-119.056992,California,0,0,0,0,0,15,0,0,0,0,0
2053,CA,CED Ducor 4,60081,DU4CA,0,OP,PV,SUN,20,0.009,1652,0,Distributed from 923 Generation And Fuel,2016,,CISO,Southern California Edison Co,35.850403,-119.026992,California,0,0,0,0,0,20,0,0,0,0,0
2054,CA,Center Peaker,56475,1,0,OP,GT,NG,49.8,0.063,27383,12847,Distributed from 923 Generation And Fuel,2007,,CISO,Southern California Edison Co,33.9296,-118.1046,California,0,49.8,0,0,0,0,0,0,0,0,0
2055,CA,Center Peaker,56475,BA1,0,OP,BA,MWH,10,,-5,0,Data from EIA-923 Generator File overwritten with distributed data from EIA-923 Generation and Fuel,2016,,CISO,Southern California Edison Co,33.9296,-118.1046,California,0,0,0,0,0,0,0,0,0,10,0
2058,CA,Centinela Solar Energy,58430,CSE1,0,OP,PV,SUN,34.2,0.317,94845.13,49851.978,Distributed from 923 Generation And Fuel,2013,,CISO,San Diego Gas & Electric Co,32.686944,-115.647778,California,0,0,0,0,0,34.2,0,0,0,0,0
2059,CA,Centinela Solar Energy,58430,CSE2,0,OP,PV,SUN,26.6,0.317,73768.435,38773.761,Distributed from 923 Generation And Fuel,2013,,CISO,San Diego Gas & Electric Co,32.686944,-115.647778,California,0,0,0,0,0,26.6,0,0,0,0,0
2060,CA,Centinela Solar Energy,58430,CSE3,0,OP,PV,SUN,34.2,0.317,94845.13,49851.978,Distributed from 923 Generation And Fuel,2013,,CISO,San Diego Gas & Electric Co,32.686944,-115.647778,California,0,0,0,0,0,34.2,0,0,0,0,0
2061,CA,Centinela Solar Energy,58430,CSE4,0,OP,PV,SUN,34.2,0.317,94845.13,49851.978,Distributed from 923 Generation And Fuel,2013,,CISO,San Diego Gas & Electric Co,32.686944,-115.647778,California,0,0,0,0,0,34.2,0,0,0,0,0
2062,CA,Centinela Solar Energy,58430,CSE5,0,OP,PV,SUN,19,0.317,52691.739,27695.543,Distributed from 923 Generation And Fuel,2014,,CISO,San Diego Gas & Electric Co,32.686944,-115.647778,California,0,0,0,0,0,19,0,0,0,0,0
2063,CA,Centinela Solar Energy,58430,CSE6,0,OP,PV,SUN,26.6,0.317,73768.435,38773.761,Distributed from 923 Generation And Fuel,2014,,CISO,San Diego Gas & Electric Co,32.686944,-115.647778,California,0,0,0,0,0,26.6,0,0,0,0,0
2065,CA,Central Antelope Dry Ranch C,59963,CADRC,0,OP,PV,SUN,20,0.163,28606,20494,Distributed from 923 Generation And Fuel,2016,,CISO,Southern California Edison Co,34.720499,-118.30046,California,0,0,0,0,0,20,0,0,0,0,0
2068,CA,Central Utilities Plant LAX 2,58258,GEN1,0,OP,GT,NG,4.6,0.381,15372.5,7212,Distributed from 923 Generation And Fuel,2015,,LDWP,Los Angeles Department of Water & Power,33.943889,-118.404167,California,0,4.6,0,0,0,0,0,0,0,0,0
2069,CA,Central Utilities Plant LAX 2,58258,GEN2,0,OP,GT,NG,4.6,0.381,15372.5,7212,Distributed from 923 Generation And Fuel,2015,,LDWP,Los Angeles Department of Water & Power,33.943889,-118.404167,California,0,4.6,0,0,0,0,0,0,0,0,0
2070,CA,Central Valley Ag Power,58978,CVAP,0,OP,IC,OBG,1.5,0.01,130,55,Distributed from 923 Generation And Fuel,2014,,CISO,Pacific Gas & Electric Co,37.719722,-120.898611,California,0,0,0,0,0,0,0,0,0,1.5,0
2071,CA,Century Generating Facility,55934,C1,0,OP,GT,NG,11.2,0.003,265,124.25,Distributed from 923 Generation And Fuel,2001,,CISO,City of Colton - (CA),34.0606,-117.3533,California,0,11.2,0,0,0,0,0,0,0,0,0
2072,CA,Century Generating Facility,55934,C2,0,OP,GT,NG,11.2,0.003,265,124.25,Distributed from 923 Generation And Fuel,2001,,CISO,City of Colton - (CA),34.0606,-117.3533,California,0,11.2,0,0,0,0,0,0,0,0,0
2073,CA,Century Generating Facility,55934,C3,0,OP,GT,NG,11.2,0.003,265,124.25,Distributed from 923 Generation And Fuel,2001,,CISO,City of Colton - (CA),34.0606,-117.3533,California,0,11.2,0,0,0,0,0,0,0,0,0
2074,CA,Century Generating Facility,55934,C4,0,OP,GT,NG,11.2,0.003,265,124.25,Distributed from 923 Generation And Fuel,2001,,CISO,City of Colton - (CA),34.0606,-117.3533,California,0,11.2,0,0,0,0,0,0,0,0,0
2078,CA,Chalk Cliff Limited,50003,GEN1,0,OP,GT,NG,46,0.008,3411,1600,Distributed from 923 Generation And Fuel,1990,,CISO,Pacific Gas & Electric Co,35.0968,-119.4299,California,0,46,0,0,0,0,0,0,0,0,0
2080,CA,Chicago Park,412,2P,0,OP,HY,WAT,44,0.419,161362,84302,Distributed from 923 Generation And Fuel,1965,,CISO,Pacific Gas & Electric Co,39.177903,-120.890856,California,0,0,0,0,0,0,0,44,0,0,0
2082,CA,Childrens Hospital,10175,1711,0,OP,GT,NG,3.5,0.892,27361,12836,Distributed from 923 Generation And Fuel,2004,,CISO,San Diego Gas & Electric Co,32.7992,-117.1517,California,0,3.5,0,0,0,0,0,0,0,0,0
2083,CA,Childrens Hospital,10175,5083,0,OP,IC,DFO,1.5,0,2.538,1.846,Distributed from 923 Generation And Fuel,2010,,CISO,San Diego Gas & Electric Co,32.7992,-117.1517,California,0,0,0,1.5,0,0,0,0,0,0,0
2084,CA,Childrens Hospital,10175,5084,0,OP,IC,DFO,1.5,0,2.538,1.846,Distributed from 923 Generation And Fuel,2010,,CISO,San Diego Gas & Electric Co,32.7992,-117.1517,California,0,0,0,1.5,0,0,0,0,0,0,0
2085,CA,Childrens Hospital,10175,5085,0,OP,IC,DFO,1.5,0,2.538,1.846,Distributed from 923 Generation And Fuel,2010,,CISO,San Diego Gas & Electric Co,32.7992,-117.1517,California,0,0,0,1.5,0,0,0,0,0,0,0
2090,CA,Chili Bar,225,1,0,OP,HY,WAT,7,0.528,32350,16901,Distributed from 923 Generation And Fuel,1965,,CISO,Pacific Gas & Electric Co,38.771764,-120.813239,California,0,0,0,0,0,0,0,7,0,0,0
2091,CA,Chowchilla II,56185,IC1,0,OP,IC,NG,3.1,0.053,1451.062,680.75,Distributed from 923 Generation And Fuel,2001,,CISO,Pacific Gas & Electric Co,37.1073,-120.2485,California,0,3.1,0,0,0,0,0,0,0,0,0
2092,CA,Chowchilla II,56185,IC10,0,OP,IC,NG,3.1,0.053,1451.062,680.75,Distributed from 923 Generation And Fuel,2001,,CISO,Pacific Gas & Electric Co,37.1073,-120.2485,California,0,3.1,0,0,0,0,0,0,0,0,0
2093,CA,Chowchilla II,56185,IC11,0,OP,IC,NG,3.1,0.053,1451.062,680.75,Distributed from 923 Generation And Fuel,2001,,CISO,Pacific Gas & Electric Co,37.1073,-120.2485,California,0,3.1,0,0,0,0,0,0,0,0,0
2094,CA,Chowchilla II,56185,IC12,0,OP,IC,NG,3.1,0.053,1451.062,680.75,Distributed from 923 Generation And Fuel,2001,,CISO,Pacific Gas & Electric Co,37.1073,-120.2485,California,0,3.1,0,0,0,0,0,0,0,0,0
2095,CA,Chowchilla II,56185,IC13,0,OP,IC,NG,3.1,0.053,1451.062,680.75,Distributed from 923 Generation And Fuel,2001,,CISO,Pacific Gas & Electric Co,37.1073,-120.2485,California,0,3.1,0,0,0,0,0,0,0,0,0
2096,CA,Chowchilla II,56185,IC14,0,OP,IC,NG,3.1,0.053,1451.062,680.75,Distributed from 923 Generation And Fuel,2001,,CISO,Pacific Gas & Electric Co,37.1073,-120.2485,California,0,3.1,0,0,0,0,0,0,0,0,0
2097,CA,Chowchilla II,56185,IC15,0,OP,IC,NG,3.1,0.053,1451.062,680.75,Distributed from 923 Generation And Fuel,2001,,CISO,Pacific Gas & Electric Co,37.1073,-120.2485,California,0,3.1,0,0,0,0,0,0,0,0,0
2098,CA,Chowchilla II,56185,IC16,0,OP,IC,NG,3.1,0.053,1451.062,680.75,Distributed from 923 Generation And Fuel,2001,,CISO,Pacific Gas & Electric Co,37.1073,-120.2485,California,0,3.1,0,0,0,0,0,0,0,0,0
2099,CA,Chowchilla II,56185,IC2,0,OP,IC,NG,3.1,0.053,1451.062,680.75,Distributed from 923 Generation And Fuel,2001,,CISO,Pacific Gas & Electric Co,37.1073,-120.2485,California,0,3.1,0,0,0,0,0,0,0,0,0
2100,CA,Chowchilla II,56185,IC3,0,OP,IC,NG,3.1,0.053,1451.062,680.75,Distributed from 923 Generation And Fuel,2001,,CISO,Pacific Gas & Electric Co,37.1073,-120.2485,California,0,3.1,0,0,0,0,0,0,0,0,0
2101,CA,Chowchilla II,56185,IC4,0,OP,IC,NG,3.1,0.053,1451.062,680.75,Distributed from 923 Generation And Fuel,2001,,CISO,Pacific Gas & Electric Co,37.1073,-120.2485,California,0,3.1,0,0,0,0,0,0,0,0,0
2102,CA,Chowchilla II,56185,IC5,0,OP,IC,NG,3.1,0.053,1451.062,680.75,Distributed from 923 Generation And Fuel,2001,,CISO,Pacific Gas & Electric Co,37.1073,-120.2485,California,0,3.1,0,0,0,0,0,0,0,0,0
2103,CA,Chowchilla II,56185,IC6,0,OP,IC,NG,3.1,0.053,1451.062,680.75,Distributed from 923 Generation And Fuel,2001,,CISO,Pacific Gas & Electric Co,37.1073,-120.2485,California,0,3.1,0,0,0,0,0,0,0,0,0
2104,CA,Chowchilla II,56185,IC7,0,OP,IC,NG,3.1,0.053,1451.062,680.75,Distributed from 923 Generation And Fuel,2001,,CISO,Pacific Gas & Electric Co,37.1073,-120.2485,California,0,3.1,0,0,0,0,0,0,0,0,0
2105,CA,Chowchilla II,56185,IC8,0,OP,IC,NG,3.1,0.053,1451.062,680.75,Distributed from 923 Generation And Fuel,2001,,CISO,Pacific Gas & Electric Co,37.1073,-120.2485,California,0,3.1,0,0,0,0,0,0,0,0,0
2106,CA,Chowchilla II,56185,IC9,0,OP,IC,NG,3.1,0.053,1451.062,680.75,Distributed from 923 Generation And Fuel,2001,,CISO,Pacific Gas & Electric Co,37.1073,-120.2485,California,0,3.1,0,0,0,0,0,0,0,0,0
2107,CA,Chuckawalla Solar,58506,937,0,OP,PV,SUN,4,0.257,9016,4796,Distributed from 923 Generation And Fuel,2012,,CISO,Southern California Edison Co,33.568333,-114.918056,California,0,0,0,0,0,4,0,0,0,0,0
2108,CA,Chuckawalla Valley State Prison,57011,1,0,OP,PV,SUN,1,0.363,3184,1694,Distributed from 923 Generation And Fuel,2006,,CISO,Southern California Edison Co,33.565329,-114.903629,California,0,0,0,0,0,1,0,0,0,0,0
2109,CA,Chula Vista Energy Center,55540,GEN1,0,OP,GT,NG,44,0.013,4847,2274,Distributed from 923 Generation And Fuel,2001,,CISO,San Diego Gas & Electric Co,32.591667,-117.058611,California,0,44,0,0,0,0,0,0,0,0,0
2110,CA,"CID Solar, LLC",59183,PV1,0,OP,PV,SUN,20,0.306,53664,28549,Distributed from 923 Generation And Fuel,2014,,CISO,Pacific Gas & Electric Co,36.138056,-119.564722,California,0,0,0,0,0,20,0,0,0,0,0
2111,CA,Citizen B,59738,CSB,0,OP,PV,SUN,5,0.28,12260,6522,Distributed from 923 Generation And Fuel,2015,,CISO,Southern California Edison Co,36.723806,-120.432139,California,0,0,0,0,0,5,0,0,0,0,0
2112,CA,City of Hayward WWTP,58525,1,0,OP,PV,SUN,1,0.265,2320,1234,Distributed from 923 Generation And Fuel,2010,,CISO,Pacific Gas & Electric Co,37.633526,-122.139717,California,0,0,0,0,0,1,0,0,0,0,0
2113,CA,City of Hayward WWTP,58525,COGEN,0,OP,IC,OBG,1.1,0.897,8648,3718,Distributed from 923 Generation And Fuel,2014,,CISO,Pacific Gas & Electric Co,37.633526,-122.139717,California,0,0,0,0,0,0,0,0,0,1.1,0
2114,CA,City of Madera WWTP,57682,1,0,OP,PV,SUN,1.2,0.206,2164,1151,Distributed from 923 Generation And Fuel,2009,,CISO,Pacific Gas & Electric Co,36.9408,-120.1572,California,0,0,0,0,0,1.2,0,0,0,0,0
2119,CA,City of Soledad Water Reclamation,59329,SOL1,0,OP,WT,WND,1,0.49,4291,2361,Distributed from 923 Generation And Fuel,2014,,CISO,Pacific Gas & Electric Co,36.421111,-121.340278,California,0,0,0,0,1,0,0,0,0,0,0
2120,CA,City of Tulare Water Facility,59395,C2550,0,OP,IC,OBG,0.5,0.035,154,66,Distributed from 923 Generation And Fuel,1991,,CISO,Southern California Edison Co,36.185,-119.375,California,0,0,0,0,0,0,0,0,0,0.5,0
2121,CA,City of Tulare Water Facility,59395,DFC30,0,OP,FC,OBG,1.4,0.242,2967,1263,Distributed from 923 Generation And Fuel,2007,,CISO,Southern California Edison Co,36.185,-119.375,California,0,0,0,0,0,0,0,0,0,1.4,0
2122,CA,City of Tulare Water Facility,59395,PV302,0,OP,PV,SUN,0.1,0.187,163.727,87.091,Distributed from 923 Generation And Fuel,2007,,CISO,Southern California Edison Co,36.185,-119.375,California,0,0,0,0,0,0.1,0,0,0,0,0
2123,CA,City of Tulare Water Facility,59395,SC500,0,OP,PV,SUN,1,0.187,1637.273,870.909,Distributed from 923 Generation And Fuel,2011,,CISO,Southern California Edison Co,36.185,-119.375,California,0,0,0,0,0,1,0,0,0,0,0
2124,CA,Civic Center,10623,GEN1,0,OP,CT,NG,22.1,0.717,138771,58189,EIA-923 Generator File,1989,,LDWP,Los Angeles Department of Water & Power,34.0564,-118.2436,California,22.1,0,0,0,0,0,0,0,0,0,0
2125,CA,Civic Center,10623,GEN2,4,OP,CA,NG,12.4,0,0,0,EIA-923 Generator File,1989,,LDWP,Los Angeles Department of Water & Power,34.0564,-118.2436,California,12.4,0,0,0,0,0,0,0,0,0,0
2127,CA,Clearwater Power Plant,56356,CT1,0,OP,CT,NG,41,0.05,18031,8459.218,EIA-923 Generator File,2005,,CISO,Southern California Edison Co,33.8912,-117.6085,California,41,0,0,0,0,0,0,0,0,0,0
2128,CA,Clearwater Power Plant,56356,ST1,0,OP,CA,NG,8,0.078,5477,2569.528,EIA-923 Generator File,2005,,CISO,Southern California Edison Co,33.8912,-117.6085,California,8,0,0,0,0,0,0,0,0,0,0
2130,CA,Cloverdale Solar I,58949,TBD,0,OP,PV,SUN,1.5,0.171,2245,1194,Distributed from 923 Generation And Fuel,2014,,CISO,Pacific Gas & Electric Co,38.773056,-123.017778,California,0,0,0,0,0,1.5,0,0,0,0,0
2136,CA,Coalinga 25D Cogen,52086,TG1,0,OP,GT,NG,3.4,0.62,18459,8660,Distributed from 923 Generation And Fuel,1986,,CISO,Pacific Gas & Electric Co,36.1556,-120.3972,California,0,3.4,0,0,0,0,0,0,0,0,0
2137,CA,Coalinga 25D Cogen,52086,TG2,0,OP,GT,NG,3.4,0.62,18459,8660,Distributed from 923 Generation And Fuel,1986,,CISO,Pacific Gas & Electric Co,36.1556,-120.3972,California,0,3.4,0,0,0,0,0,0,0,0,0
2138,CA,Coalinga 25D Cogen,52086,TG3,0,OP,GT,NG,3.4,0.62,18459,8660,Distributed from 923 Generation And Fuel,1987,,CISO,Pacific Gas & Electric Co,36.1556,-120.3972,California,0,3.4,0,0,0,0,0,0,0,0,0
2139,CA,Coalinga 25D Cogen,52086,TG4,0,OP,GT,NG,3.4,0.62,18459,8660,Distributed from 923 Generation And Fuel,1987,,CISO,Pacific Gas & Electric Co,36.1556,-120.3972,California,0,3.4,0,0,0,0,0,0,0,0,0
2142,CA,Coalinga Cogeneration,50131,K100,0,OP,GT,NG,38.4,0.763,256666,120414,Distributed from 923 Generation And Fuel,1991,,CISO,Pacific Gas & Electric Co,36.1807,-120.3885,California,0,38.4,0,0,0,0,0,0,0,0,0
2143,CA,Coalinga Cogeneration Facility,50750,GEN1,0,OP,GT,NG,3.4,0.867,25810,12108.5,Distributed from 923 Generation And Fuel,1988,,CISO,Pacific Gas & Electric Co,36.170317,-120.364084,California,0,3.4,0,0,0,0,0,0,0,0,0
2144,CA,Coalinga Cogeneration Facility,50750,GEN2,0,OP,GT,NG,3.4,0.867,25810,12108.5,Distributed from 923 Generation And Fuel,1988,,CISO,Pacific Gas & Electric Co,36.170317,-120.364084,California,0,3.4,0,0,0,0,0,0,0,0,0
2145,CA,Coca Cola American Canyon,57807,COK01,0,OP,FC,NG,1.1,0,3,1,Distributed from 923 Generation And Fuel,2011,,CISO,Pacific Gas & Electric Co,38.190705,-122.275067,California,0,1.1,0,0,0,0,0,0,0,0,0
2146,CA,Cold Canyon 1,58379,W3998,0,OP,IC,LFG,1.5,0.792,10412,4433,Distributed from 923 Generation And Fuel,2013,,CISO,Pacific Gas & Electric Co,35.186667,-120.599444,California,0,0,0,0,0,0,0,0,0,1.5,0
2147,CA,Coleman PH,227,1,0,OP,HY,WAT,12.1,0.448,47515,24824,Distributed from 923 Generation And Fuel,1979,,CISO,Pacific Gas & Electric Co,40.404645,-122.121904,California,0,0,0,0,0,0,0,12.1,0,0,0
2148,CA,Colgate,454,1,0,OP,HY,WAT,157.5,0.382,526356.5,254818.5,Distributed from 923 Generation And Fuel,1969,,CISO,Pacific Gas & Electric Co,39.330833,-121.191666,California,0,0,0,0,0,0,0,157.5,0,0,0
2151,CA,Collierville Powerhouse,54555,GEN1,0,OP,HY,WAT,126.5,0.208,230394,45089.5,Distributed from 923 Generation And Fuel,1989,,CISO,Pacific Gas & Electric Co,38.144636,-120.380497,California,0,0,0,0,0,0,0,126.5,0,0,0
2152,CA,Collierville Powerhouse,54555,GEN2,0,OP,HY,WAT,126.5,0.208,230394,45089.5,Distributed from 923 Generation And Fuel,1989,,CISO,Pacific Gas & Electric Co,38.144636,-120.380497,California,0,0,0,0,0,0,0,126.5,0,0,0
2153,CA,Collins Pine Project,10661,GEN4,1,OP,ST,WDS,12,0.089,9354,3308,EIA-923 Generator File,1985,,CISO,Pacific Gas & Electric Co,40.303422,-121.244431,California,0,0,0,0,0,0,0,0,0,12,0
2154,CA,Colon PV,59798,W4172,0,OP,PV,SUN,1.3,0.192,2188,1164,Distributed from 923 Generation And Fuel,2015,,LDWP,Los Angeles Department of Water & Power,33.792694,-118.252407,California,0,0,0,0,0,1.3,0,0,0,0,0
2155,CA,"Colton Solar One, LLC",59597,CS001,0,OP,PV,SUN,2.5,0.226,4940,2628,Distributed from 923 Generation And Fuel,2015,,CISO,City of Colton - (CA),34.093333,-117.319444,California,0,0,0,0,0,2.5,0,0,0,0,0
2156,CA,"Colton Solar Two, LLC",59598,CS002,0,OP,PV,SUN,1,0.241,2108,1121,Distributed from 923 Generation And Fuel,2015,,CISO,City of Colton - (CA),34.042222,-117.361667,California,0,0,0,0,0,1,0,0,0,0,0
2157,CA,Columbia 3,58502,COL3,0,OP,PV,SUN,10,0.302,26450,14071,Distributed from 923 Generation And Fuel,2014,,CISO,Southern California Edison Co,35.024722,-118.164167,California,0,0,0,0,0,10,0,0,0,0,0
2158,CA,"Columbia Solar Energy, LLC",59979,GEN1,0,OP,PV,SUN,19.2,0.243,40794,21702,Distributed from 923 Generation And Fuel,2015,,CISO,Pacific Gas & Electric Co,38.019671,-121.86506,California,0,0,0,0,0,19.2,0,0,0,0,0
2159,CA,Colusa Generating Station,56532,A,0,OP,CT,NG,181.5,0.547,870367,358122,EIA-923 Generator File,2010,,CISO,Pacific Gas & Electric Co,39.3661,-122.27,California,181.5,0,0,0,0,0,0,0,0,0,0
2160,CA,Colusa Generating Station,56532,B,0,OP,CT,NG,181.5,0.56,889654,377509,EIA-923 Generator File,2010,,CISO,Pacific Gas & Electric Co,39.3661,-122.27,California,181.5,0,0,0,0,0,0,0,0,0,0
2161,CA,Colusa Generating Station,56532,C,2,OP,CA,NG,349.4,0.376,1149377,465276,EIA-923 Generator File,2010,,CISO,Pacific Gas & Electric Co,39.3661,-122.27,California,349.4,0,0,0,0,0,0,0,0,0,0
2162,CA,Combie South,846,1,0,OP,HY,WAT,0.5,0.603,2642.333,1380.333,Distributed from 923 Generation And Fuel,1984,,CISO,Pacific Gas & Electric Co,39.0096,-121.0591,California,0,0,0,0,0,0,0,0.5,0,0,0
2163,CA,Combie South,846,2,0,OP,HY,WAT,0.5,0.603,2642.333,1380.333,Distributed from 923 Generation And Fuel,1984,,CISO,Pacific Gas & Electric Co,39.0096,-121.0591,California,0,0,0,0,0,0,0,0.5,0,0,0
2164,CA,Combie South,846,3,0,OP,HY,WAT,0.5,0.603,2642.333,1380.333,Distributed from 923 Generation And Fuel,1984,,CISO,Pacific Gas & Electric Co,39.0096,-121.0591,California,0,0,0,0,0,0,0,0.5,0,0,0
2165,CA,Combustion Turbine Project No 2,7449,NA1,0,OP,GT,NG,50,0.005,2304,1081,Distributed from 923 Generation And Fuel,1996,,CISO,Pacific Gas & Electric Co,38.088138,-121.386944,California,0,50,0,0,0,0,0,0,0,0,0
2166,CA,Commerce Refuse To Energy,10090,GEN1,1,OP,ST,MSW,12,0.756,79508,31891,EIA-923 Generator File,1986,,CISO,Southern California Edison Co,33.9949,-118.1538,California,0,0,0,0,0,0,0,0,0,12,0
2172,CA,Control Gorge,393,1,0,OP,HY,WAT,37.5,0.113,37040,19351,Distributed from 923 Generation And Fuel,1952,,LDWP,Los Angeles Department of Water & Power,37.437921,-118.556988,California,0,0,0,0,0,0,0,37.5,0,0,0
2181,CA,Copco 1,294,1,0,OP,HY,WAT,10,0.462,40482,21149.5,Distributed from 923 Generation And Fuel,1918,,PACW,PacifiCorp,41.978914,-122.335317,California,0,0,0,0,0,0,0,10,0,0,0
2182,CA,Copco 1,294,2,0,OP,HY,WAT,10,0.462,40482,21149.5,Distributed from 923 Generation And Fuel,1918,,PACW,PacifiCorp,41.978914,-122.335317,California,0,0,0,0,0,0,0,10,0,0,0
2183,CA,Copco 2,295,1,0,OP,HY,WAT,13.5,0.443,52396,27373.5,Distributed from 923 Generation And Fuel,1925,,PACW,PacifiCorp,41.975716,-122.358127,California,0,0,0,0,0,0,0,13.5,0,0,0
2184,CA,Copco 2,295,2,0,OP,HY,WAT,13.5,0.443,52396,27373.5,Distributed from 923 Generation And Fuel,1925,,PACW,PacifiCorp,41.975716,-122.358127,California,0,0,0,0,0,0,0,13.5,0,0,0
2185,CA,Coram Energy LLC,54299,GEWE,0,OP,WT,WND,3,0.451,11855,6524,Distributed from 923 Generation And Fuel,2005,,CISO,Southern California Edison Co,35.075,-118.3417,California,0,0,0,0,3,0,0,0,0,0,0
2187,CA,Coram Energy LLC (ECT),54298,GEWE,0,OP,WT,WND,7.5,0.431,28310,15578,Distributed from 923 Generation And Fuel,2005,,CISO,San Diego Gas & Electric Co,35.0583,-118.3417,California,0,0,0,0,7.5,0,0,0,0,0,0
2189,CA,Coram Tehachapi,54750,VW1,0,OP,WT,WND,6.5,0.248,14093,7755,Distributed from 923 Generation And Fuel,1992,,CISO,Southern California Edison Co,35.0663,-118.339444,California,0,0,0,0,6.5,0,0,0,0,0,0
2190,CA,Corcoran,60450,PVCR,0,OP,PV,SUN,1.1,0.21,2022,1076,Distributed from 923 Generation And Fuel,2014,,CISO,Pacific Gas & Electric Co,36.102307,-119.566516,California,0,0,0,0,0,1.1,0,0,0,0,0
2191,CA,Corcoran Solar,58374,CSCA,0,OP,PV,SUN,20,0.292,51179,27227,Distributed from 923 Generation And Fuel,2013,,CISO,Pacific Gas & Electric Co,36.138333,-119.573333,California,0,0,0,0,0,20,0,0,0,0,0
2192,CA,Corcoran Solar 2,59413,C2CA,0,OP,PV,SUN,19.8,0.293,50862,27058,Distributed from 923 Generation And Fuel,2015,,CISO,Pacific Gas & Electric Co,36.141944,-119.581667,California,0,0,0,0,0,19.8,0,0,0,0,0
2193,CA,Corcoran Solar 3,59900,C3CA,0,OP,PV,SUN,20,0.305,53413,29558,Distributed from 923 Generation And Fuel,2016,,CISO,Pacific Gas & Electric Co,36.15042,-119.58542,California,0,0,0,0,0,20,0,0,0,0,0
2194,CA,Corona,480,1,0,OP,HY,WAT,2.9,0.796,20224,10566,Distributed from 923 Generation And Fuel,1983,,CISO,Southern California Edison Co,33.85895,-117.6106,California,0,0,0,0,0,0,0,2.9,0,0,0
2195,CA,"Corona Energy Partners, Ltd",10635,GEN1,0,OP,GT,NG,47,0.32,131696,61785,Distributed from 923 Generation And Fuel,1988,,CISO,Southern California Edison Co,33.8827,-117.5565,California,0,47,0,0,0,0,0,0,0,0,0
2196,CA,Coronal Lost Hills,59638,CLH,0,OP,PV,SUN,20,0.3,52623,27995,Distributed from 923 Generation And Fuel,2015,,CISO,Pacific Gas & Electric Co,35.726667,-119.905833,California,0,0,0,0,0,20,0,0,0,0,0
2197,CA,Coronus Adelanto West 1,59536,AWI,0,OP,PV,SUN,1.5,0.238,3126,1663,Distributed from 923 Generation And Fuel,2015,,CISO,Southern California Edison Co,34.548056,-117.464444,California,0,0,0,0,0,1.5,0,0,0,0,0
2198,CA,Coronus Adelanto West 2,59537,AW2,0,OP,PV,SUN,1.5,0.244,3201,1703,Distributed from 923 Generation And Fuel,2015,,CISO,Southern California Edison Co,34.548056,-117.464444,California,0,0,0,0,0,1.5,0,0,0,0,0
2199,CA,Coso Energy Developers,10875,GEN7,0,OP,ST,GEO,30,0.339,89050.333,41438,Distributed from 923 Generation And Fuel,1988,,CISO,Southern California Edison Co,36.0019,-117.7886,California,0,0,0,0,0,0,0,0,0,30,0
2200,CA,Coso Energy Developers,10875,GEN8,0,OP,ST,GEO,30,0.339,89050.333,41438,Distributed from 923 Generation And Fuel,1988,,CISO,Southern California Edison Co,36.0019,-117.7886,California,0,0,0,0,0,0,0,0,0,30,0
2201,CA,Coso Energy Developers,10875,GEN9,0,OP,ST,GEO,30,0.339,89050.333,41438,Distributed from 923 Generation And Fuel,1989,,CISO,Southern California Edison Co,36.0019,-117.7886,California,0,0,0,0,0,0,0,0,0,30,0
2202,CA,Coso Finance Partners,10873,GEN1,0,OP,ST,GEO,32.2,0.6,169273.165,70432.087,Distributed from 923 Generation And Fuel,1987,,CISO,Southern California Edison Co,36.0372,-117.7981,California,0,0,0,0,0,0,0,0,0,32.2,0
2203,CA,Coso Finance Partners,10873,GEN2,0,OP,ST,GEO,30,0.6,157707.918,65619.957,Distributed from 923 Generation And Fuel,1988,,CISO,Southern California Edison Co,36.0372,-117.7981,California,0,0,0,0,0,0,0,0,0,30,0
2204,CA,Coso Finance Partners,10873,GEN3,0,OP,ST,GEO,30,0.6,157707.918,65619.957,Distributed from 923 Generation And Fuel,1988,,CISO,Southern California Edison Co,36.0372,-117.7981,California,0,0,0,0,0,0,0,0,0,30,0
2205,CA,Coso Power Developers,10874,GEN4,0,OP,ST,GEO,30,0.601,157918.667,57397.667,Distributed from 923 Generation And Fuel,1989,,CISO,Southern California Edison Co,36.0192,-117.7917,California,0,0,0,0,0,0,0,0,0,30,0
2206,CA,Coso Power Developers,10874,GEN5,0,OP,ST,GEO,30,0.601,157918.667,57397.667,Distributed from 923 Generation And Fuel,1989,,CISO,Southern California Edison Co,36.0192,-117.7917,California,0,0,0,0,0,0,0,0,0,30,0
2207,CA,Coso Power Developers,10874,GEN6,0,OP,ST,GEO,30,0.601,157918.667,57397.667,Distributed from 923 Generation And Fuel,1989,,CISO,Southern California Edison Co,36.0192,-117.7917,California,0,0,0,0,0,0,0,0,0,30,0
2211,CA,Cottonwood,394,1,0,OP,HY,WAT,0.8,0.115,806.5,421.5,Distributed from 923 Generation And Fuel,1908,,LDWP,Los Angeles Department of Water & Power,36.443421,-118.04389,California,0,0,0,0,0,0,0,0.8,0,0,0
2212,CA,Cottonwood,394,2,0,OP,HY,WAT,0.8,0.115,806.5,421.5,Distributed from 923 Generation And Fuel,1909,,LDWP,Los Angeles Department of Water & Power,36.443421,-118.04389,California,0,0,0,0,0,0,0,0.8,0,0,0
2213,CA,"Cottonwood Solar, LLC (City of Corcoran)",59087,GEN 1,0,OP,PV,SUN,12,0.282,29661,15780,Distributed from 923 Generation And Fuel,2015,,CISO,Pacific Gas & Electric Co,36.134444,-119.554444,California,0,0,0,0,0,12,0,0,0,0,0
2214,CA,"Cottonwood Solar, LLC (Goose Lake)",59086,GEN1,0,OP,PV,SUN,12,0.335,35207,18730,Distributed from 923 Generation And Fuel,2015,,CISO,Pacific Gas & Electric Co,35.593611,-119.58,California,0,0,0,0,0,12,0,0,0,0,0
2215,CA,"Cottonwood Solar, LLC Cottonwood Carport",59703,1,0,OP,PV,SUN,1,0.095,828,593,Distributed from 923 Generation And Fuel,2016,,CISO,Pacific Gas & Electric Co,38.129759,-122.568158,California,0,0,0,0,0,1,0,0,0,0,0
2219,CA,Covanta Stanislaus Energy,50632,GEN1,2,OP,ST,MSW,24,0.726,152532,65146,EIA-923 Generator File,1988,,CISO,Pacific Gas & Electric Co,37.3853,-121.141,California,0,0,0,0,0,0,0,0,0,24,0
2220,CA,Cove Hydroelectric,10707,GEN1,0,OP,HY,WAT,5,0.378,16568,8656,Distributed from 923 Generation And Fuel,1990,,CISO,Pacific Gas & Electric Co,40.8713,-121.9487,California,0,0,0,0,0,0,0,5,0,0,0
2221,CA,Cow Creek,229,1,0,OP,HY,WAT,0.7,0.556,3406.5,1779.5,Distributed from 923 Generation And Fuel,1907,2019,CISO,Pacific Gas & Electric Co,40.570817,-122.02093,California,0,0,0,0,0,0,0,0.7,0,0,0
2222,CA,Cow Creek,229,2,0,OP,HY,WAT,0.7,0.556,3406.5,1779.5,Distributed from 923 Generation And Fuel,1907,2019,CISO,Pacific Gas & Electric Co,40.570817,-122.02093,California,0,0,0,0,0,0,0,0.7,0,0,0
2223,CA,Coyote Creek,483,1,0,OP,HY,WAT,3.1,0.216,5858,3060,Distributed from 923 Generation And Fuel,1984,,CISO,Southern California Edison Co,33.92493,-117.95517,California,0,0,0,0,0,0,0,3.1,0,0,0
2224,CA,Crafton Hills College Solar Farm,58170,GEN1,0,OP,PV,SUN,1.3,0.159,1806,961,Distributed from 923 Generation And Fuel,2012,,CISO,Southern California Edison Co,34.043056,-117.098889,California,0,0,0,0,0,1.3,0,0,0,0,0
2226,CA,Creed Energy Center,55625,CT1,0,OP,GT,NG,47,0.021,8501,3988,Distributed from 923 Generation And Fuel,2003,,CISO,Pacific Gas & Electric Co,38.242158,-121.854722,California,0,47,0,0,0,0,0,0,0,0,0
2227,CA,Cresta,231,1,0,OP,HY,WAT,36.9,0.388,125469.5,65550,Distributed from 923 Generation And Fuel,1949,,CISO,Pacific Gas & Electric Co,39.825907,-121.409687,California,0,0,0,0,0,0,0,36.9,0,0,0
2228,CA,Cresta,231,2,0,OP,HY,WAT,36.9,0.388,125469.5,65550,Distributed from 923 Generation And Fuel,1950,,CISO,Pacific Gas & Electric Co,39.825907,-121.409687,California,0,0,0,0,0,0,0,36.9,0,0,0
2229,CA,Crockett Cogen Project,55084,GE1,1,OP,CS,NG,247.4,0.646,1399248,689279,EIA-923 Generator File,1995,,CISO,Pacific Gas & Electric Co,38.0569,-122.2161,California,0,247.4,0,0,0,0,0,0,0,0,0
2231,CA,CSD 2 - Heritage High,59130,57449,0,OP,PV,SUN,1.3,0.19,2167,1153,Distributed from 923 Generation And Fuel,2013,,CISO,Pacific Gas & Electric Co,37.921944,-121.755556,California,0,0,0,0,0,1.3,0,0,0,0,0
2232,CA,CSD 2- Freedom High,59129,57449,0,OP,PV,SUN,1.1,0.172,1661,884,Distributed from 923 Generation And Fuel,2013,,CISO,Pacific Gas & Electric Co,37.969722,-121.719444,California,0,0,0,0,0,1.1,0,0,0,0,0
2233,CA,CSU East Bay,57042,1,0,OP,FC,NG,1.4,0.299,3666,1720,Distributed from 923 Generation And Fuel,2011,,CISO,Pacific Gas & Electric Co,37.658889,-122.059444,California,0,1.4,0,0,0,0,0,0,0,0,0
2234,CA,CSU Fresno Solar Project,56813,1,0,OP,PV,SUN,0.5,0.165,722.5,384.5,Distributed from 923 Generation And Fuel,2007,,CISO,Pacific Gas & Electric Co,36.809841,-119.741665,California,0,0,0,0,0,0.5,0,0,0,0,0
2235,CA,CSU Fresno Solar Project,56813,2,0,OP,PV,SUN,0.5,0.165,722.5,384.5,Distributed from 923 Generation And Fuel,2007,,CISO,Pacific Gas & Electric Co,36.809841,-119.741665,California,0,0,0,0,0,0.5,0,0,0,0,0
2236,CA,CSU Northridge Plant,58422,63,0,OP,FC,NG,0.3,0.582,1530.25,718,Distributed from 923 Generation And Fuel,2007,,LDWP,Los Angeles Department of Water & Power,34.243333,-118.530556,California,0,0.3,0,0,0,0,0,0,0,0,0
2237,CA,CSU Northridge Plant,58422,64,0,OP,FC,NG,0.3,0.582,1530.25,718,Distributed from 923 Generation And Fuel,2007,,LDWP,Los Angeles Department of Water & Power,34.243333,-118.530556,California,0,0.3,0,0,0,0,0,0,0,0,0
2238,CA,CSU Northridge Plant,58422,65,0,OP,FC,NG,0.3,0.582,1530.25,718,Distributed from 923 Generation And Fuel,2007,,LDWP,Los Angeles Department of Water & Power,34.243333,-118.530556,California,0,0.3,0,0,0,0,0,0,0,0,0
2239,CA,CSU Northridge Plant,58422,67,0,OP,FC,NG,0.3,0.582,1530.25,718,Distributed from 923 Generation And Fuel,2007,,LDWP,Los Angeles Department of Water & Power,34.243333,-118.530556,California,0,0.3,0,0,0,0,0,0,0,0,0
2240,CA,CSU Northridge Plant,58422,B2PV,0,OP,PV,SUN,0.4,0.178,622.667,331.333,Distributed from 923 Generation And Fuel,2005,,LDWP,Los Angeles Department of Water & Power,34.243333,-118.530556,California,0,0,0,0,0,0.4,0,0,0,0,0
2242,CA,CSU Northridge Plant,58422,E6PV,0,OP,PV,SUN,0.2,0.178,311.333,165.667,Distributed from 923 Generation And Fuel,2003,,LDWP,Los Angeles Department of Water & Power,34.243333,-118.530556,California,0,0,0,0,0,0.2,0,0,0,0,0
2243,CA,CSUCI Site Authority,50851,GEN1,0,OP,CT,NG,23.5,0.649,133670,62711.093,EIA-923 Generator File,1988,,CISO,Southern California Edison Co,34.161951,-119.047916,California,23.5,0,0,0,0,0,0,0,0,0,0
2244,CA,CSUCI Site Authority,50851,GEN2,0,OP,CA,NG,7.6,0.558,37128,17418.55,EIA-923 Generator File,1988,,CISO,Southern California Edison Co,34.161951,-119.047916,California,7.6,0,0,0,0,0,0,0,0,0,0
2245,CA,CSUF Nutwood Solar,60979,PV1,0,OP,PV,SUN,1.9,0.001,17,0,Distributed from 923 Generation And Fuel,2016,,CISO,Southern California Edison Co,33.87912,-117.8887,California,0,0,0,0,0,1.9,0,0,0,0,0
2246,CA,CSUF State College,60978,PV1,0,OP,PV,SUN,1,0.002,14,0,Distributed from 923 Generation And Fuel,2016,,CISO,Southern California Edison Co,33.87912,-117.8887,California,0,0,0,0,0,1,0,0,0,0,0
2247,CA,CSUF Trigeneration,58169,1,0,OP,GT,NG,4.6,0.757,30498,14308,Distributed from 923 Generation And Fuel,2010,,CISO,Southern California Edison Co,33.880638,-117.88656,California,0,4.6,0,0,0,0,0,0,0,0,0
2248,CA,CSUF Trigeneration,58169,CPAC,0,OP,PV,SUN,0.3,0.049,128.077,68.154,Distributed from 923 Generation And Fuel,2012,,CISO,Southern California Edison Co,33.880638,-117.88656,California,0,0,0,0,0,0.3,0,0,0,0,0
2249,CA,CSUF Trigeneration,58169,KHS,0,OP,PV,SUN,0.3,0.049,128.077,68.154,Distributed from 923 Generation And Fuel,2012,,CISO,Southern California Edison Co,33.880638,-117.88656,California,0,0,0,0,0,0.3,0,0,0,0,0
2250,CA,CSUF Trigeneration,58169,NPS,0,OP,PV,SUN,2,0.049,853.846,454.359,Distributed from 923 Generation And Fuel,2016,,CISO,Southern California Edison Co,33.880638,-117.88656,California,0,0,0,0,0,2,0,0,0,0,0
2251,CA,CSUF Trigeneration,58169,PS4,0,OP,PV,SUN,0.3,0.049,128.077,68.154,Distributed from 923 Generation And Fuel,2012,,CISO,Southern California Edison Co,33.880638,-117.88656,California,0,0,0,0,0,0.3,0,0,0,0,0
2252,CA,CSUF Trigeneration,58169,SCPS,0,OP,PV,SUN,1,0.049,426.923,227.179,Distributed from 923 Generation And Fuel,2016,,CISO,Southern California Edison Co,33.880638,-117.88656,California,0,0,0,0,0,1,0,0,0,0,0
2253,CA,CTV Power Purchase Contract Trust,54300,GEWE,0,OP,WT,WND,4.5,0.264,10389.13,5716.957,Distributed from 923 Generation And Fuel,2004,,CISO,Southern California Edison Co,35.0583,-118.3083,California,0,0,0,0,4.5,0,0,0,0,0,0
2256,CA,Cuyamaca Peak Energy Plant,55512,CPP6,0,OP,GT,NG,48.7,0.019,8176,3836,Distributed from 923 Generation And Fuel,2002,,CISO,San Diego Gas & Electric Co,32.796491,-116.972071,California,0,48.7,0,0,0,0,0,0,0,0,0
2257,CA,Cymric 31X Cogen,52081,TG1,0,OP,GT,NG,3.4,0.769,22912,10749,Distributed from 923 Generation And Fuel,1988,,CISO,Pacific Gas & Electric Co,35.3639,-119.6592,California,0,3.4,0,0,0,0,0,0,0,0,0
2258,CA,Cymric 31X Cogen,52081,TG2,0,OP,GT,NG,3.4,0.769,22912,10749,Distributed from 923 Generation And Fuel,1988,,CISO,Pacific Gas & Electric Co,35.3639,-119.6592,California,0,3.4,0,0,0,0,0,0,0,0,0
2259,CA,Cymric 36W Cogen,52104,GEN1,0,OP,GT,NG,3.1,0.694,18849,8843,Distributed from 923 Generation And Fuel,1982,,CISO,Pacific Gas & Electric Co,35.3633,-119.6756,California,0,3.1,0,0,0,0,0,0,0,0,0
2260,CA,Cymric 36W Cogen,52104,GEN2,0,OP,GT,NG,3.1,0.694,18849,8843,Distributed from 923 Generation And Fuel,1982,,CISO,Pacific Gas & Electric Co,35.3633,-119.6756,California,0,3.1,0,0,0,0,0,0,0,0,0
2261,CA,Cymric 36W Cogen,52104,GEN3,0,OP,GT,NG,3.1,0.694,18849,8843,Distributed from 923 Generation And Fuel,1982,,CISO,Pacific Gas & Electric Co,35.3633,-119.6756,California,0,3.1,0,0,0,0,0,0,0,0,0
2262,CA,Cymric 36W Cogen,52104,GEN4,0,OP,GT,NG,3.1,0.694,18849,8843,Distributed from 923 Generation And Fuel,1982,,CISO,Pacific Gas & Electric Co,35.3633,-119.6756,California,0,3.1,0,0,0,0,0,0,0,0,0
2263,CA,Cymric 6Z Cogen,52082,TG1,0,OP,GT,NG,3.4,0.766,22821.5,10706.5,Distributed from 923 Generation And Fuel,1986,,CISO,Pacific Gas & Electric Co,35.346102,-119.643431,California,0,3.4,0,0,0,0,0,0,0,0,0
2264,CA,Cymric 6Z Cogen,52082,TG2,0,OP,GT,NG,3.4,0.766,22821.5,10706.5,Distributed from 923 Generation And Fuel,1986,,CISO,Pacific Gas & Electric Co,35.346102,-119.643431,California,0,3.4,0,0,0,0,0,0,0,0,0
2265,CA,De Sabla,232,1,0,OP,HY,WAT,18.4,0.306,49393,25805,Distributed from 923 Generation And Fuel,1963,,CISO,Pacific Gas & Electric Co,39.869265,-121.631819,California,0,0,0,0,0,0,0,18.4,0,0,0
2266,CA,Deadwood Creek,7507,1,0,OP,HY,WAT,2,0.19,3330,1740,Distributed from 923 Generation And Fuel,1993,,CISO,Pacific Gas & Electric Co,39.53,-121.095833,California,0,0,0,0,0,0,0,2,0,0,0
2267,CA,Deer Creek PH,233,1,0,OP,HY,WAT,5.5,0.33,15919,8317,Distributed from 923 Generation And Fuel,1908,,CISO,Pacific Gas & Electric Co,39.29807,-120.8443,California,0,0,0,0,0,0,0,5.5,0,0,0
2269,CA,Delano Energy Center,58122,GEN1,0,OP,GT,NG,48.5,0.028,11715,5496,Distributed from 923 Generation And Fuel,2013,,CISO,Southern California Edison Co,35.790864,-119.294469,California,0,48.5,0,0,0,0,0,0,0,0,0
2271,CA,Delta Energy Center,55333,CTG1,0,OP,CT,NG,212,0.415,769835,326831,EIA-923 Generator File,2002,,CISO,Pacific Gas & Electric Co,38.0169,-121.8439,California,212,0,0,0,0,0,0,0,0,0,0
2272,CA,Delta Energy Center,55333,CTG2,0,OP,CT,NG,212,0.366,680360,277237,EIA-923 Generator File,2002,,CISO,Pacific Gas & Electric Co,38.0169,-121.8439,California,212,0,0,0,0,0,0,0,0,0,0
2273,CA,Delta Energy Center,55333,CTG3,0,OP,CT,NG,213.5,0.388,726570,324468,EIA-923 Generator File,2002,,CISO,Pacific Gas & Electric Co,38.0169,-121.8439,California,213.5,0,0,0,0,0,0,0,0,0,0
2274,CA,Delta Energy Center,55333,STG1,3,OP,CA,NG,306,0.464,1244788,539217,EIA-923 Generator File,2002,,CISO,Pacific Gas & Electric Co,38.0169,-121.8439,California,306,0,0,0,0,0,0,0,0,0,0
2277,CA,Desert Green Solar Farm LLC,57959,1,0,OP,PV,SUN,6.3,0.257,14189,7549,Distributed from 923 Generation And Fuel,2014,,CISO,San Diego Gas & Electric Co,33.27055,-116.34805,California,0,0,0,0,0,6.3,0,0,0,0,0
2278,CA,Desert Hot Springs Solar,58514,DHCA,0,OP,PV,SUN,2.3,0.314,6329,3367,Distributed from 923 Generation And Fuel,2013,,CISO,Southern California Edison Co,33.923056,-116.53,California,0,0,0,0,0,2.3,0,0,0,0,0
2280,CA,"Desert Sunlight 250, LLC",58542,DSL12,0,OP,PV,SUN,39.1,0.285,97670.453,46000.046,Distributed from 923 Generation And Fuel,2013,,CISO,Southern California Edison Co,33.8055,-115.3947,California,0,0,0,0,0,39.1,0,0,0,0,0
2281,CA,"Desert Sunlight 250, LLC",58542,DSL13,0,OP,PV,SUN,39.1,0.285,97670.453,46000.046,Distributed from 923 Generation And Fuel,2014,,CISO,Southern California Edison Co,33.8055,-115.3947,California,0,0,0,0,0,39.1,0,0,0,0,0
2282,CA,"Desert Sunlight 250, LLC",58542,DSL14,0,OP,PV,SUN,26.5,0.285,66196.087,31176.502,Distributed from 923 Generation And Fuel,2014,,CISO,Southern California Edison Co,33.8055,-115.3947,California,0,0,0,0,0,26.5,0,0,0,0,0
2283,CA,"Desert Sunlight 250, LLC",58542,DSL15,0,OP,PV,SUN,13.9,0.285,34721.721,16352.958,Distributed from 923 Generation And Fuel,2014,,CISO,Southern California Edison Co,33.8055,-115.3947,California,0,0,0,0,0,13.9,0,0,0,0,0
2284,CA,"Desert Sunlight 250, LLC",58542,DSL16,0,OP,PV,SUN,22.7,0.285,56703.818,26705.909,Distributed from 923 Generation And Fuel,2013,,CISO,Southern California Edison Co,33.8055,-115.3947,California,0,0,0,0,0,22.7,0,0,0,0,0
2285,CA,"Desert Sunlight 250, LLC",58542,DSL17,0,OP,PV,SUN,29,0.285,72441.001,34117.681,Distributed from 923 Generation And Fuel,2013,,CISO,Southern California Edison Co,33.8055,-115.3947,California,0,0,0,0,0,29,0,0,0,0,0
